Locations in Germany
0	Lat: 53.6164	Long: 9.675	Name: Holm	Count:1312
1	Lat: 50.1139	Long: 8.9107	Name: Hanau	Count:2440
2	Lat: 50.7047	Long: 12.7645	Name: Stollberg	Count:1712
3	Lat: 49.3555	Long: 12.5333	Name: Roetz	Count:523
4	Lat: 49.4588	Long: 11.694	Name: Illschwang	Count:912
5	Lat: 50.7248	Long: 7.1555	Name: Bonn	Count:7619
6	Lat: 51.1659	Long: 6.8773	Name: Dusseldorf	Count:2604
7	Lat: 52.5333	Long: 10.5167	Name: Wagenhoff	Count:369
8	Lat: 52.5333	Long: 11.3667	Name: Gardelegen	Count:2615
9	Lat: 52.5333	Long: 13.4333	Name: Berlin	Count:3722
10	Lat: 52.5333	Long: 10.8667	Name: Parsau	Count:184
11	Lat: 52.5333	Long: 12.3167	Name: Milow	Count:225
12	Lat: 52.5333	Long: 8.35	Name: Lembruch	Count:92
13	Lat: 52.5333	Long: 9.5333	Name: Scharnhorst	Count:615
14	Lat: 52.5333	Long: 9.5667	Name: Neustadt am Rubenberge	Count:1056
15	Lat: 52.5333	Long: 11.2	Name: Mieste	Count:389
16	Lat: 52.5333	Long: 13.6833	Name: Neuenhagen	Count:6943
17	Lat: 52.5333	Long: 7.1333	Name: Wietmarschen	Count:6348
18	Lat: 52.5333	Long: 13.05	Name: Dorf Doberitz	Count:3148
19	Lat: 52.5333	Long: 12.3333	Name: Premnitz	Count:2420
20	Lat: 52.5333	Long: 10.3667	Name: Muden	Count:1815
21	Lat: 52.5333	Long: 6.85	Name: Wilsum	Count:861
22	Lat: 49.7456	Long: 8.6099	Name: Bickenbach	Count:2933
23	Lat: 49.0594	Long: 9.2789	Name: Auenstein	Count:123
24	Lat: 49.3953	Long: 8.4403	Name: Waldsee	Count:2625
25	Lat: 52.5056	Long: 13.4487	Name: Berlin	Count:24900
26	Lat: 53.6333	Long: 10.6833	Name: Molln	Count:143
27	Lat: 53.6333	Long: 10.1333	Name: Berne	Count:1251
28	Lat: 53.6333	Long: 10.4667	Name: Hohenfelde	Count:266
29	Lat: 53.6333	Long: 8.85	Name: Bederkesa	Count:3856
30	Lat: 53.6333	Long: 14.0167	Name: Torgelow	Count:2533
31	Lat: 53.6333	Long: 9.4833	Name: Schnee	Count:10
32	Lat: 53.6333	Long: 9.85	Name: Halstenbek	Count:4071
33	Lat: 53.6333	Long: 9.1	Name: Lamstedt	Count:1343
34	Lat: 53.6333	Long: 9.2833	Name: Burweg	Count:871
35	Lat: 53.6333	Long: 11.3833	Name: Schwerin	Count:5835
36	Lat: 53.6333	Long: 13.1667	Name: Breesen	Count:246
37	Lat: 49.1017	Long: 8.0311	Name: Kapellen-Drusweiler	Count:287
38	Lat: 47.9998	Long: 11.1777	Name: Herrsching am Ammersee	Count:1405
39	Lat: 51.3987	Long: 7.4901	Name: Hagen	Count:14398
40	Lat: 51.3614	Long: 6.7246	Name: Duisburg	Count:14798
41	Lat: 47.571	Long: 10.2226	Name: Immenstadt im Allgau	Count:4050
42	Lat: 48.6246	Long: 10.0195	Name: Gerstetten	Count:5086
43	Lat: 50.0896	Long: 8.2428	Name: Wiesbaden	Count:10768
44	Lat: 48.1345	Long: 11.559	Name: Munich	Count:11937
45	Lat: 48.1345	Long: 11.571	Name: Munich	Count:5804
46	Lat: 51.259	Long: 7.1694	Name: Wuppertal	Count:5230
47	Lat: 51.0471	Long: 14.4298	Name: Sohland	Count:2769
48	Lat: 51.4463	Long: 6.6396	Name: Moers	Count:21916
49	Lat: 48.4091	Long: 9.0552	Name: Mossingen	Count:5291
50	Lat: 48.7167	Long: 9.2667	Name: Ostfildern	Count:15598
51	Lat: 48.7167	Long: 13.4667	Name: Fursteneck	Count:430
52	Lat: 48.7167	Long: 13.3333	Name: Furstenstein	Count:943
53	Lat: 48.7167	Long: 9.4167	Name: Plochingen	Count:389
54	Lat: 48.7167	Long: 8.85	Name: Ostelsheim	Count:758
55	Lat: 48.7167	Long: 10.6167	Name: Bissingen	Count:974
56	Lat: 48.7167	Long: 11.4	Name: Ingolstadt	Count:133
57	Lat: 48.7167	Long: 9.5333	Name: Ebersbach an der Fils	Count:4071
58	Lat: 48.7167	Long: 11.3167	Name: Weichering	Count:676
59	Lat: 48.7167	Long: 11.5	Name: Manching	Count:1487
60	Lat: 48.7167	Long: 10.9333	Name: Niederschonenfeld	Count:964
61	Lat: 48.7167	Long: 8.7333	Name: Calw	Count:205
62	Lat: 49.1309	Long: 11.1214	Name: Heideck	Count:133
63	Lat: 50.8163	Long: 6.014	Name: Aachen	Count:3076
64	Lat: 48.7301	Long: 9.1097	Name: Stuttgart	Count:9435
65	Lat: 51.4804	Long: 11.9216	Name: Halle	Count:1415
66	Lat: 51.4804	Long: 7.0714	Name: Essen	Count:2430
67	Lat: 49.3784	Long: 8.3658	Name: Schifferstadt	Count:11834
68	Lat: 48.9611	Long: 9.1761	Name: Dagersheim	Count:2133
69	Lat: 52.5178	Long: 13.301	Name: Berlin	Count:4266
70	Lat: 51.3515	Long: 7.1302	Name: Velbert	Count:348
71	Lat: 51.3935	Long: 7.0825	Name: Essen	Count:5476
72	Lat: 47.8913	Long: 12.5384	Name: Chieming	Count:820
73	Lat: 49.4502	Long: 11.848	Name: Amberg	Count:16737
74	Lat: 53.5564	Long: 10.0144	Name: Hamburg	Count:984
75	Lat: 48.0925	Long: 7.9578	Name: Waldkirch	Count:5814
76	Lat: 51.149	Long: 14.9534	Name: Görlitz	Count:440
77	Lat: 50.0144	Long: 8.8822	Name: Rodgau	Count:38202
78	Lat: 52.24	Long: 14.05	Name: Wendisch Rietz	Count:174
79	Lat: 51.0638	Long: 9.22	Name: Borken	Count:3712
80	Lat: 48.4648	Long: 8.4182	Name: Freudenstadt	Count:8942
81	Lat: 53.5286	Long: 8.5907	Name: Bremerhaven	Count:8183
82	Lat: 48.7406	Long: 10.1152	Name: Konigsbronn	Count:24367
83	Lat: 53.0889	Long: 8.7906	Name: Bremen	Count:8245
84	Lat: 49.3864	Long: 9.6339	Name: Krautheim	Count:1210
85	Lat: 51.4273	Long: 6.9967	Name: Essen	Count:8891
86	Lat: 50.9433	Long: 14.2467	Name: Sebnitz	Count:861
87	Lat: 52.3143	Long: 10.2336	Name: Peine	Count:3835
88	Lat: 49.7717	Long: 11.1718	Name: Ebermannstadt	Count:3271
89	Lat: 49.2087	Long: 7.0202	Name: Saarbrücken	Count:5938
90	Lat: 50.9734	Long: 6.7984	Name: Pulheim	Count:34407
91	Lat: 54.3041	Long: 13.046	Name: Stralsund	Count:1415
92	Lat: 54.3041	Long: 9.6014	Name: Fockbek	Count:256
93	Lat: 49.6531	Long: 8.5581	Name: Lorsch	Count:10881
94	Lat: 51.0143	Long: 7.5724	Name: Gummersbach	Count:7907
95	Lat: 51.0143	Long: 10.9928	Name: Erfurt	Count:1343
96	Lat: 51.7032	Long: 9.989	Name: Northeim	Count:6676
97	Lat: 50.6167	Long: 10.8333	Name: Schmiedefeld am Rennsteig	Count:266
98	Lat: 50.6167	Long: 7.6333	Name: Steimel	Count:543
99	Lat: 50.6167	Long: 7.4333	Name: Neustadt/Westerwald	Count:12686
100	Lat: 50.6167	Long: 11.1	Name: Mellenbach-Glasbach	Count:440
101	Lat: 50.6167	Long: 13.0167	Name: Thermalbad Wiesenbad	Count:317
102	Lat: 50.6167	Long: 7.5333	Name: Oberlahr	Count:297
103	Lat: 50.6167	Long: 10.4833	Name: Viernau	Count:1035
104	Lat: 50.6167	Long: 7.35	Name: Vettelschoss	Count:1015
105	Lat: 50.6167	Long: 6.7	Name: Mechernich	Count:246
106	Lat: 50.6167	Long: 9.5	Name: Bad Salzschlirf	Count:307
107	Lat: 50.6167	Long: 11.8167	Name: Schleiz	Count:112
108	Lat: 50.6167	Long: 7.2333	Name: Rheinbreitbach	Count:933
109	Lat: 50.6167	Long: 11.0333	Name: Gillersdorf	Count:143
110	Lat: 50.6167	Long: 7.9833	Name: Hohn	Count:697
111	Lat: 50.6167	Long: 12.6667	Name: Schlema	Count:235
112	Lat: 50.6167	Long: 10.6333	Name: Albrechts	Count:184
113	Lat: 50.6167	Long: 11.0167	Name: Gillersdorf	Count:1312
114	Lat: 50.6167	Long: 12.2667	Name: Mylau	Count:974
115	Lat: 50.6167	Long: 7.8667	Name: Lochum	Count:123
116	Lat: 50.6167	Long: 8.3	Name: Greifenstein	Count:1240
117	Lat: 50.6167	Long: 7.9333	Name: Dreisbach	Count:1066
118	Lat: 50.6167	Long: 12.3	Name: Reichenbach/Vogtland	Count:3199
119	Lat: 48.5654	Long: 10.4297	Name: Lauingen	Count:2379
120	Lat: 50.7624	Long: 6.138	Name: Aachen	Count:19003
121	Lat: 54.05	Long: 10.0833	Name: Gross Kummerfeld	Count:164
122	Lat: 54.05	Long: 9.9	Name: Wasbek	Count:1887
123	Lat: 54.05	Long: 9.9167	Name: Padenstedt	Count:738
124	Lat: 54.05	Long: 13.4167	Name: Weitenhagen	Count:317
125	Lat: 54.05	Long: 10.1667	Name: Trappenkamp	Count:430
126	Lat: 54.05	Long: 10.4167	Name: Seedorf	Count:1887
127	Lat: 54.05	Long: 9.7667	Name: Aukrug	Count:2215
128	Lat: 54.05	Long: 13.6833	Name: Katzow	Count:379
129	Lat: 54.05	Long: 10.2667	Name: Tarbek	Count:348
130	Lat: 54.05	Long: 12.6333	Name: Grammow	Count:184
131	Lat: 54.05	Long: 10.75	Name: Haffkrug	Count:184
132	Lat: 48.006	Long: 9.6583	Name: Bad Schussenried	Count:1128
133	Lat: 51.9501	Long: 8.5792	Name: Bielefeld	Count:9086
134	Lat: 53.7	Long: 9.2	Name: Osten	Count:543
135	Lat: 53.7	Long: 7.9667	Name: Schillig	Count:7281
136	Lat: 53.7	Long: 9.65	Name: Uetersen	Count:8153
137	Lat: 53.7	Long: 11.5167	Name: Cambs	Count:728
138	Lat: 53.7	Long: 10.8167	Name: Schmilau	Count:215
139	Lat: 53.7	Long: 10.4667	Name: Schiphorst	Count:358
140	Lat: 53.7	Long: 10.35	Name: Todendorf	Count:1148
141	Lat: 53.7	Long: 9.3833	Name: Drochtersen	Count:3220
142	Lat: 53.7	Long: 7.8	Name: Carolinensiel	Count:1169
143	Lat: 53.7	Long: 11.2833	Name: Cramonshagen	Count:1579
144	Lat: 53.7	Long: 9.9833	Name: Norderstedt	Count:61
145	Lat: 53.7	Long: 9.7167	Name: Tornesch	Count:3630
146	Lat: 53.7	Long: 11.65	Name: Gustavel	Count:225
147	Lat: 53.7	Long: 10.5167	Name: Labenz	Count:112
148	Lat: 53.7	Long: 11.8167	Name: Sternberg	Count:584
149	Lat: 53.7	Long: 10.2	Name: Hamburg	Count:2543
150	Lat: 53.7	Long: 10.25	Name: Delingsdorf	Count:1507
151	Lat: 53.7	Long: 10.0167	Name: Norderstedt	Count:3076
152	Lat: 53.7	Long: 11.4333	Name: Schwerin	Count:266
153	Lat: 53.7	Long: 11.1167	Name: Gadebusch	Count:1025
154	Lat: 53.7	Long: 12.85	Name: Gulzow	Count:246
155	Lat: 53.5545	Long: 8.5933	Name: Bremerhaven	Count:5835
156	Lat: 50.8056	Long: 12.9067	Name: Chemnitz	Count:3281
157	Lat: 47.6184	Long: 12.1659	Name: Kiefersfelden	Count:1866
158	Lat: 47.9256	Long: 7.6197	Name: Hartheim	Count:1999
159	Lat: 49.4112	Long: 7.5586	Name: Landstuhl	Count:6430
160	Lat: 51.5502	Long: 6.5914	Name: Rheinberg	Count:12552
161	Lat: 51.7287	Long: 7.1666	Name: Haltern	Count:14480
162	Lat: 52.989	Long: 8.8314	Name: Weyhe	Count:1466
163	Lat: 49.5333	Long: 7.2667	Name: Oberkirchen	Count:399
164	Lat: 49.5333	Long: 10.8333	Name: Puschendorf	Count:2727
165	Lat: 49.5333	Long: 10.1333	Name: Uffenheim	Count:974
166	Lat: 49.5333	Long: 7.6333	Name: Olsbrucken	Count:358
167	Lat: 49.5333	Long: 10.8667	Name: Veitsbronn	Count:1722
168	Lat: 49.5333	Long: 7.3333	Name: Pfeffelbach	Count:184
169	Lat: 49.5333	Long: 11.5833	Name: Etzelwang	Count:287
170	Lat: 49.5333	Long: 7.85	Name: Sembach	Count:2143
171	Lat: 49.5333	Long: 6.3667	Name: Nennig	Count:205
172	Lat: 49.5333	Long: 11.8833	Name: Gebenbach	Count:994
173	Lat: 49.5333	Long: 7.5167	Name: Niederstaufenbach	Count:338
174	Lat: 49.5333	Long: 11.8	Name: Hahnbach	Count:389
175	Lat: 49.5333	Long: 12.4667	Name: Pirk	Count:184
176	Lat: 49.5333	Long: 7.1667	Name: Hirstein	Count:123
177	Lat: 49.5333	Long: 7.75	Name: Schneckenhausen	Count:543
178	Lat: 49.5333	Long: 10.25	Name: Uffenheim	Count:1815
179	Lat: 49.5333	Long: 12.3333	Name: Gleiritsch	Count:656
180	Lat: 53.9167	Long: 12.4833	Name: Prebberede	Count:451
181	Lat: 53.9167	Long: 10.1833	Name: Todesfelde	Count:1005
182	Lat: 53.9167	Long: 9.8833	Name: Bad Bramstedt	Count:4943
183	Lat: 53.9167	Long: 9.6	Name: Itzehoe	Count:6389
184	Lat: 53.9167	Long: 9.3833	Name: Wilster	Count:266
185	Lat: 53.9167	Long: 10.7333	Name: Sereetz	Count:420
186	Lat: 53.9167	Long: 11.5833	Name: Wismar	Count:1117
187	Lat: 53.9167	Long: 9.5167	Name: Itzehoe	Count:13629
188	Lat: 53.9167	Long: 13.35	Name: Jarmen	Count:440
189	Lat: 53.9167	Long: 10.3833	Name: Weede	Count:430
190	Lat: 53.9167	Long: 10.8073	Name: Lübeck	Count:3661
191	Lat: 53.9167	Long: 10.7	Name: Bad Schwartau	Count:851
192	Lat: 53.9167	Long: 11.7333	Name: Neukloster	Count:728
193	Lat: 48.7582	Long: 9.1509	Name: Stuttgart	Count:2727
194	Lat: 49.5056	Long: 8.6036	Name: Heddesheim	Count:2133
195	Lat: 50.2585	Long: 10.9579	Name: Coburg	Count:20603
196	Lat: 51.6566	Long: 6.9656	Name: Dorsten	Count:4973
197	Lat: 51.6566	Long: 7.1101	Name: Marl	Count:13814
198	Lat: 50.608	Long: 10.6957	Name: Suhl	Count:3066
199	Lat: 50.7071	Long: 8.7095	Name: Fronhausen	Count:3651
200	Lat: 52.5293	Long: 13.3369	Name: Berlin	Count:5702
201	Lat: 52.7667	Long: 11.9833	Name: Schwarzholz	Count:143
202	Lat: 52.7667	Long: 9.55	Name: Hodenhagen	Count:1733
203	Lat: 52.7667	Long: 7.45	Name: Klein Berssen	Count:1025
204	Lat: 52.7667	Long: 13.5667	Name: Biesenthal	Count:2810
205	Lat: 52.7667	Long: 8.7333	Name: Neuenkirchen	Count:215
206	Lat: 52.7667	Long: 9	Name: Asendorf	Count:1928
207	Lat: 54.3973	Long: 10.1505	Name: Kiel	Count:2020
208	Lat: 49.7753	Long: 9.9936	Name: Gerbrunn	Count:14163
209	Lat: 52.3412	Long: 8.5253	Name: Preussisch Oldendorf	Count:1538
210	Lat: 50.1764	Long: 8.7358	Name: Bad Vilbel	Count:15496
211	Lat: 49.3818	Long: 7.3301	Name: Waldmohr	Count:2276
212	Lat: 51.6189	Long: 7.5222	Name: Lünen	Count:9876
213	Lat: 51.4967	Long: 7.1136	Name: Gelsenkirchen	Count:14778
214	Lat: 53.6172	Long: 12.3324	Name: Krakow am See	Count:758
215	Lat: 51.189	Long: 6.5404	Name: Korschenbroich	Count:17219
216	Lat: 48.4804	Long: 9.7939	Name: Berghulen	Count:297
217	Lat: 52.5136	Long: 13.4232	Name: Berlin	Count:8604
218	Lat: 47.6335	Long: 7.6922	Name: Lörrach	Count:1640
219	Lat: 49.2455	Long: 8.8823	Name: Sinsheim	Count:22829
220	Lat: 54.3253	Long: 10.1212	Name: Kiel	Count:12891
221	Lat: 52.5349	Long: 13.2828	Name: Charlottenburg Bezirk	Count:3158
222	Lat: 47.7894	Long: 12.1094	Name: Raubling	Count:5045
223	Lat: 52.2638	Long: 9.3401	Name: Lauenau	Count:184
224	Lat: 49.9486	Long: 12.2383	Name: Mitterteich	Count:605
225	Lat: 51.2922	Long: 6.8485	Name: Ratingen	Count:7045
226	Lat: 50.8964	Long: 6.6829	Name: Kerpen	Count:13465
227	Lat: 48.7792	Long: 13.4409	Name: Perlesreut	Count:307
228	Lat: 48.6381	Long: 12.4907	Name: Dingolfing	Count:3353
229	Lat: 49.3536	Long: 11.1483	Name: Wendelstein	Count:8440
230	Lat: 48.3167	Long: 11.85	Name: Oberding	Count:1846
231	Lat: 48.3167	Long: 12.2833	Name: Buchbach	Count:2676
232	Lat: 48.3167	Long: 7.95	Name: Seelbach	Count:1394
233	Lat: 48.3167	Long: 11.6833	Name: Mintraching	Count:317
234	Lat: 48.3167	Long: 11.9833	Name: Bockhorn	Count:779
235	Lat: 48.3167	Long: 12.9333	Name: Tann	Count:1251
236	Lat: 48.3167	Long: 13.0833	Name: Stubenberg	Count:420
237	Lat: 48.3167	Long: 11.2667	Name: Welshofen	Count:328
238	Lat: 48.3167	Long: 8.2167	Name: Oberwolfach	Count:656
239	Lat: 48.3167	Long: 8.1167	Name: Fischerbach	Count:164
240	Lat: 48.3167	Long: 11.2	Name: Odelzhausen	Count:3025
241	Lat: 48.3167	Long: 10.0667	Name: Senden	Count:1179
242	Lat: 48.3167	Long: 8.9167	Name: Bisingen	Count:307
243	Lat: 48.3167	Long: 11.6667	Name: Neufahrn bei Freising	Count:4297
244	Lat: 48.3167	Long: 8.5667	Name: Sulz am Neckar	Count:717
245	Lat: 48.1204	Long: 11.5001	Name: Munich	Count:19331
246	Lat: 48.1204	Long: 10.457	Name: Pfaffenhausen	Count:861
247	Lat: 50.0103	Long: 12.1008	Name: Marktredwitz	Count:3609
248	Lat: 48.1352	Long: 11.604	Name: Munich	Count:5753
249	Lat: 52.0566	Long: 7.839	Name: Ostbevern	Count:2933
250	Lat: 49.7153	Long: 8.1186	Name: Esselborn	Count:123
251	Lat: 50.8408	Long: 12.0756	Name: Gera	Count:4789
252	Lat: 52.1579	Long: 9.7817	Name: Nordstemmen	Count:8460
253	Lat: 48.7736	Long: 9.1641	Name: Stuttgart	Count:13393
254	Lat: 52.1602	Long: 7.533	Name: Emsdetten	Count:13506
255	Lat: 51.2249	Long: 6.4838	Name: Mönchengladbach	Count:5938
256	Lat: 51.2249	Long: 6.7742	Name: Dusseldorf	Count:7445
257	Lat: 51.469	Long: 7.5154	Name: Dortmund	Count:7486
258	Lat: 51.3148	Long: 12.2912	Name: Leipzig	Count:9158
259	Lat: 47.9796	Long: 8.8074	Name: Tuttlingen	Count:17188
260	Lat: 48.1089	Long: 11.6074	Name: Munich	Count:26715
261	Lat: 49.2277	Long: 9.6922	Name: Kupferzell	Count:1128
262	Lat: 51.6574	Long: 8.3435	Name: Lippstadt	Count:15814
263	Lat: 50.8009	Long: 6.4788	Name: Düren	Count:3579
264	Lat: 49.625	Long: 8.7631	Name: Rimbach	Count:5671
265	Lat: 51.5604	Long: 9.9319	Name: Göttingen	Count:7753
266	Lat: 47.9891	Long: 12.0039	Name: Assling	Count:2194
267	Lat: 51.8208	Long: 6.6063	Name: Bocholt	Count:14562
268	Lat: 51.4698	Long: 6.9517	Name: Essen	Count:16224
269	Lat: 51.6212	Long: 7.6309	Name: Bergkamen	Count:17814
270	Lat: 53.8606	Long: 10.6611	Name: Lübeck	Count:9035
271	Lat: 49.0555	Long: 9.2543	Name: Ilsfeld	Count:2922
272	Lat: 49.3714	Long: 8.0683	Name: Lambrecht	Count:543
273	Lat: 52.9675	Long: 10.5615	Name: Uelzen	Count:6348
274	Lat: 50.7084	Long: 9.7082	Name: Burghaun	Count:1056
275	Lat: 52.9363	Long: 9.2907	Name: Kirchlinteln	Count:3230
276	Lat: 49.9474	Long: 11.5993	Name: Bayreuth	Count:10183
277	Lat: 51.9316	Long: 8.4599	Name: Gütersloh	Count:1394
278	Lat: 48.7	Long: 11.8167	Name: Elsendorf	Count:225
279	Lat: 48.7	Long: 9.15	Name: Leinfelden-Echterdingen	Count:26162
280	Lat: 48.7	Long: 12.8333	Name: Oberporing	Count:348
281	Lat: 48.7	Long: 13.3833	Name: Wildenberg	Count:184
282	Lat: 48.7	Long: 10.3667	Name: Dischingen	Count:61
283	Lat: 48.7	Long: 9.0167	Name: Sindelfingen	Count:482
284	Lat: 48.7	Long: 11.8333	Name: Mitterstetten	Count:164
285	Lat: 48.7	Long: 9.7	Name: Eislingen	Count:2235
286	Lat: 48.7	Long: 10.8833	Name: Genderkingen	Count:153
287	Lat: 48.7	Long: 8.0667	Name: Zell	Count:3712
288	Lat: 48.7	Long: 11.0167	Name: Burgheim	Count:225
289	Lat: 48.7	Long: 12.0333	Name: Rottenburg an der Laaber	Count:2348
290	Lat: 48.7	Long: 9.6667	Name: Göppingen	Count:46673
291	Lat: 48.7	Long: 13.0833	Name: Schnelldorf	Count:851
292	Lat: 48.7	Long: 10.8	Name: Donauwörth	Count:5045
293	Lat: 48.7	Long: 8.8333	Name: Gechingen	Count:92
294	Lat: 48.7	Long: 8.15	Name: Buhl	Count:15537
295	Lat: 48.7	Long: 9.5833	Name: Uhingen	Count:1579
296	Lat: 48.7	Long: 13.0167	Name: Osterhofen	Count:164
297	Lat: 48.7	Long: 8.6833	Name: Bad Teinach-Zavelstein	Count:1630
298	Lat: 51.0382	Long: 7.2546	Name: Kurten	Count:5958
299	Lat: 51.0382	Long: 14.2148	Name: Neustadt in Sachsen	Count:1322
300	Lat: 51.8433	Long: 7.2948	Name: Dulmen	Count:15762
301	Lat: 49.5683	Long: 8.1086	Name: Ebertsheim	Count:123
302	Lat: 49.744	Long: 6.6188	Name: Trier	Count:7373
303	Lat: 51.3489	Long: 12.3688	Name: Leipzig	Count:6614
304	Lat: 50.5333	Long: 7.5	Name: Bonefeld	Count:307
305	Lat: 50.5333	Long: 10.65	Name: Themar	Count:410
306	Lat: 50.5333	Long: 6.8833	Name: Wald	Count:584
307	Lat: 50.5333	Long: 11.65	Name: Remptendorf	Count:564
308	Lat: 50.5333	Long: 10.0833	Name: Frankenheim	Count:256
309	Lat: 50.5333	Long: 10.6833	Name: Schleusingen	Count:205
310	Lat: 50.5333	Long: 7.4167	Name: Niederbreitbach	Count:358
311	Lat: 50.5333	Long: 10.75	Name: Sankt Kilian	Count:102
312	Lat: 50.5333	Long: 7.4667	Name: Kurtscheid	Count:1210
313	Lat: 50.5333	Long: 11.3	Name: Grafenthal	Count:184
314	Lat: 50.5333	Long: 12.9167	Name: Elterlein	Count:276
315	Lat: 50.5333	Long: 9.8333	Name: Birkenhof	Count:51
316	Lat: 50.5333	Long: 10.4667	Name: Obermassfeld-Grimmenthal	Count:164
317	Lat: 50.5333	Long: 7.7667	Name: Selters	Count:2779
318	Lat: 50.5333	Long: 7.95	Name: Guckheim	Count:379
319	Lat: 50.5333	Long: 12.8667	Name: Markersbach	Count:358
320	Lat: 50.5333	Long: 7.5667	Name: Ruscheid	Count:276
321	Lat: 50.5333	Long: 6.6833	Name: Pesch	Count:1015
322	Lat: 50.5333	Long: 12.0833	Name: Syrau	Count:830
323	Lat: 50.5333	Long: 12.5333	Name: Stutzengrun	Count:102
324	Lat: 50.5333	Long: 12.4167	Name: Rodewisch	Count:164
325	Lat: 51.3678	Long: 10.8637	Name: Sondershausen	Count:328
326	Lat: 51.3678	Long: 6.4161	Name: Kempen	Count:12409
327	Lat: 48.8572	Long: 8.1959	Name: Rastatt	Count:15988
328	Lat: 50.9167	Long: 6.8167	Name: Frechen	Count:3220
329	Lat: 50.9167	Long: 14.8	Name: Eckartsberg	Count:30
330	Lat: 50.9167	Long: 10.9333	Name: Ingersleben	Count:123
331	Lat: 50.9167	Long: 9.45	Name: Schwarzenborn	Count:984
332	Lat: 50.9167	Long: 6.95	Name: Zollstock	Count:564
333	Lat: 50.9167	Long: 13.55	Name: Obercunnersdorf	Count:1117
334	Lat: 50.9167	Long: 11.3833	Name: Mechelroda	Count:574
335	Lat: 50.9167	Long: 8.5333	Name: Biedenkopf	Count:974
336	Lat: 50.9167	Long: 8.1	Name: Netphen	Count:635
337	Lat: 50.9167	Long: 12.8167	Name: Burgstadt	Count:3076
338	Lat: 50.9167	Long: 10.0333	Name: Dippach	Count:1189
339	Lat: 50.9167	Long: 11.8667	Name: Bad Klosterlausnitz	Count:410
340	Lat: 50.9167	Long: 11.3	Name: Hetschburg	Count:153
341	Lat: 50.9167	Long: 14.7667	Name: Mittelherwigsdorf	Count:184
342	Lat: 50.9167	Long: 7.4	Name: Much	Count:3661
343	Lat: 50.9167	Long: 10.2	Name: Marksuhl	Count:881
344	Lat: 50.9167	Long: 10.4167	Name: Seebach	Count:276
345	Lat: 50.9167	Long: 10.5833	Name: Horselgau	Count:615
346	Lat: 50.9167	Long: 12.0667	Name: Gera	Count:123
347	Lat: 50.9167	Long: 10.8	Name: Seebergen	Count:51
348	Lat: 50.9167	Long: 11.3333	Name: Buchfart	Count:276
349	Lat: 50.9167	Long: 12.85	Name: Taura	Count:840
350	Lat: 50.9167	Long: 14.7	Name: Hainewalde	Count:174
351	Lat: 50.9167	Long: 6.9833	Name: Bayenthal	Count:307
352	Lat: 50.9167	Long: 7.6667	Name: Heseln	Count:205
353	Lat: 50.9167	Long: 13.3667	Name: Freiberg	Count:2851
354	Lat: 50.6605	Long: 12.6731	Name: Hartenstein	Count:2574
355	Lat: 53.9022	Long: 9.1334	Name: Brunsbuttel	Count:1015
356	Lat: 47.6333	Long: 10.3167	Name: Kuhbach	Count:656
357	Lat: 47.6333	Long: 10.5	Name: Wangen	Count:2481
358	Lat: 47.6333	Long: 7.6	Name: Eimeldingen	Count:1005
359	Lat: 47.6333	Long: 7.9	Name: Wehr	Count:6173
360	Lat: 47.6333	Long: 10.4333	Name: Oy-Mittelberg	Count:4163
361	Lat: 47.6333	Long: 9.75	Name: Neuravensburg	Count:153
362	Lat: 47.6333	Long: 9.7333	Name: Baindt	Count:235
363	Lat: 47.6333	Long: 11.2333	Name: Ohlstadt	Count:420
364	Lat: 47.6333	Long: 9.8333	Name: Opfenbach	Count:943
365	Lat: 47.6333	Long: 8.5667	Name: Lottstetten	Count:1056
366	Lat: 51.3674	Long: 12.3909	Name: Leipzig	Count:5763
367	Lat: 51.7667	Long: 7.4667	Name: Ludinghausen	Count:1425
368	Lat: 51.7667	Long: 6.4	Name: Rees	Count:482
369	Lat: 51.7667	Long: 7.95	Name: Rosendahl	Count:758
370	Lat: 51.7667	Long: 9.7167	Name: Dassel	Count:215
371	Lat: 51.7667	Long: 8.9333	Name: Altenbeken	Count:1846
372	Lat: 51.7667	Long: 11	Name: Timmenrode	Count:482
373	Lat: 51.7667	Long: 14.3333	Name: Cottbus	Count:9383
374	Lat: 51.7667	Long: 10.9667	Name: Wienrode	Count:369
375	Lat: 51.7667	Long: 8.5667	Name: Delbruck	Count:11291
376	Lat: 51.7667	Long: 6.85	Name: Raesfeld	Count:4297
377	Lat: 51.3026	Long: 13.3097	Name: Riesa	Count:2338
378	Lat: 50.7213	Long: 10.4458	Name: Schmalkalden	Count:6266
379	Lat: 52.3141	Long: 8.626	Name: Lubbecke	Count:4009
380	Lat: 52.4414	Long: 14.3736	Name: Lebus	Count:594
381	Lat: 49.4062	Long: 8.6868	Name: Heidelberg	Count:15055
382	Lat: 51.966	Long: 8.2212	Name: Harsewinkel	Count:19188
383	Lat: 47.774	Long: 12.1398	Name: Neubeuern	Count:369
384	Lat: 49.4708	Long: 8.9934	Name: Eberbach	Count:2492
385	Lat: 49.0614	Long: 9.8937	Name: Obersontheim	Count:1189
386	Lat: 49.475	Long: 8.6069	Name: Ladenburg	Count:7784
387	Lat: 53.131	Long: 8.1828	Name: Oldenburg	Count:12255
388	Lat: 47.8052	Long: 7.6784	Name: Badenweiler	Count:2369
389	Lat: 48.8086	Long: 9.2792	Name: Fellbach	Count:8286
390	Lat: 50.5455	Long: 8.505	Name: Wetzlar	Count:5486
391	Lat: 49.2817	Long: 6.8214	Name: Bous	Count:1425
392	Lat: 48.8901	Long: 9.1746	Name: Ludwigsburg	Count:8624
393	Lat: 49.36	Long: 7.2674	Name: Bexbach	Count:5989
394	Lat: 51.1807	Long: 7.2066	Name: Remscheid	Count:11619
395	Lat: 52.2752	Long: 9.5754	Name: Wennigsen	Count:5240
396	Lat: 48.5693	Long: 13.4122	Name: Passau	Count:3076
397	Lat: 51.0409	Long: 13.611	Name: Dresden	Count:707
398	Lat: 53.3167	Long: 11.5	Name: Ludwigslust	Count:1825
399	Lat: 53.3167	Long: 9.6667	Name: Heidenau	Count:1199
400	Lat: 53.3167	Long: 7.35	Name: Rorichum	Count:369
401	Lat: 53.3167	Long: 10.2833	Name: Radbruch	Count:1302
402	Lat: 53.3167	Long: 11.9667	Name: Marnitz	Count:430
403	Lat: 53.3167	Long: 9.3333	Name: Heeslingen	Count:5630
404	Lat: 53.3167	Long: 9.1333	Name: Rhadereistedt	Count:133
405	Lat: 53.3167	Long: 9.7667	Name: Kakenstorf	Count:964
406	Lat: 53.3167	Long: 7.5333	Name: Hesel	Count:246
407	Lat: 53.3167	Long: 10.0167	Name: Marxen	Count:235
408	Lat: 53.3167	Long: 13.8667	Name: Prenzlau	Count:1897
409	Lat: 52.5697	Long: 14.2351	Name: Neutrebbin	Count:594
410	Lat: 49.428	Long: 9.4265	Name: Osterburken	Count:1394
411	Lat: 51.0836	Long: 13.6981	Name: Dresden	Count:6461
412	Lat: 49.8427	Long: 9.604	Name: Marktheidenfeld	Count:2420
413	Lat: 47.8104	Long: 9.6387	Name: Weingarten	Count:5630
414	Lat: 50.9977	Long: 7.8381	Name: Olpe	Count:8778
415	Lat: 47.7269	Long: 7.5622	Name: Bad Bellingen	Count:635
416	Lat: 52.2548	Long: 9.0624	Name: Buckeburg	Count:2245
417	Lat: 47.6682	Long: 11.0465	Name: Bad Kohlgrub	Count:492
418	Lat: 51.1911	Long: 6.4468	Name: Mönchengladbach	Count:14029
419	Lat: 49.4833	Long: 10.6833	Name: Adelsdorf	Count:2174
420	Lat: 49.4833	Long: 7.3833	Name: Wahnwegen	Count:143
421	Lat: 49.4833	Long: 7.4333	Name: Glan-Munchweiler	Count:358
422	Lat: 49.4833	Long: 10.6667	Name: Eschenbach	Count:871
423	Lat: 49.4833	Long: 8.795	Name: Heiligkreuzsteinach	Count:789
424	Lat: 49.4833	Long: 10.5833	Name: Hohenroth	Count:235
425	Lat: 49.4833	Long: 7.9	Name: Enkenbach-Alsenborn	Count:1846
426	Lat: 49.4833	Long: 7.35	Name: Herschweiler-Pettersheim	Count:533
427	Lat: 49.4833	Long: 11.9833	Name: Freudenberg	Count:871
428	Lat: 49.4833	Long: 10.7167	Name: Wilhermsdorf	Count:5209
429	Lat: 49.4833	Long: 10.65	Name: Markt Erlbach	Count:2420
430	Lat: 49.4833	Long: 7.0667	Name: Tholey	Count:1076
431	Lat: 49.4833	Long: 10.8833	Name: Seukendorf	Count:3292
432	Lat: 49.4833	Long: 7.75	Name: Otterbach	Count:851
433	Lat: 49.4833	Long: 7.0333	Name: Tholey	Count:4122
434	Lat: 52.8324	Long: 8.165	Name: Emstek	Count:1825
435	Lat: 52.1833	Long: 8.9667	Name: Rinteln	Count:307
436	Lat: 52.1833	Long: 10.9333	Name: Warberg	Count:164
437	Lat: 52.1833	Long: 9.0833	Name: Rinteln	Count:8112
438	Lat: 52.1833	Long: 11.5333	Name: Dahlenwarsleben	Count:205
439	Lat: 52.1833	Long: 8.7	Name: Lohne	Count:6194
440	Lat: 52.1833	Long: 10.6667	Name: Sickte	Count:1035
441	Lat: 52.1833	Long: 10.7167	Name: Evessen	Count:235
442	Lat: 52.1833	Long: 11.45	Name: Gross Santersleben	Count:1035
443	Lat: 52.1833	Long: 7.6333	Name: Saerbeck	Count:4594
444	Lat: 52.1833	Long: 7.8667	Name: Lengerich	Count:1589
445	Lat: 52.1833	Long: 11.1667	Name: Eilsleben	Count:1199
446	Lat: 52.1833	Long: 11.5667	Name: Ebendorf	Count:635
447	Lat: 52.1833	Long: 7.5333	Name: Emsdetten	Count:1958
448	Lat: 52.1833	Long: 13.4	Name: Am Mellensee	Count:840
449	Lat: 52.1833	Long: 8.6667	Name: Lohne	Count:14562
450	Lat: 48.0915	Long: 11.5392	Name: Munich	Count:10347
451	Lat: 49.2911	Long: 8.2658	Name: Gommersheim	Count:379
452	Lat: 54.6	Long: 9.4167	Name: Bollingstedt	Count:194
453	Lat: 54.6	Long: 9.55	Name: Stolk	Count:194
454	Lat: 51.5913	Long: 10.5649	Name: Bad Sachsa	Count:1804
455	Lat: 52.0875	Long: 10.3667	Name: Salzgitter	Count:2645
456	Lat: 49.0928	Long: 12.9128	Name: Viechtach	Count:2133
457	Lat: 49.0928	Long: 9.7097	Name: Schwäbisch Hall	Count:358
458	Lat: 49.8368	Long: 7.8647	Name: Bad Kreuznach	Count:5445
459	Lat: 50.0212	Long: 8.7866	Name: Dietzenbach	Count:13219
460	Lat: 49.7859	Long: 10.341	Name: Wiesentheid	Count:594
461	Lat: 49.7859	Long: 9.8959	Name: Hochberg	Count:1384
462	Lat: 48.8814	Long: 9.5296	Name: Rudersberg	Count:7076
463	Lat: 51.3319	Long: 6.5717	Name: Krefeld	Count:8655
464	Lat: 47.4298	Long: 11.2656	Name: Mittenwald	Count:1056
465	Lat: 49.3333	Long: 7.2667	Name: Bexbach	Count:1610
466	Lat: 49.3333	Long: 7.45	Name: Wiesbach	Count:317
467	Lat: 49.3333	Long: 7.7333	Name: Schmalenberg	Count:2010
468	Lat: 49.3333	Long: 7.65	Name: Horbach	Count:830
469	Lat: 52.3871	Long: 13.0993	Name: Potsdam	Count:9814
470	Lat: 48.8919	Long: 8.6986	Name: Pforzheim	Count:5507
471	Lat: 51.8833	Long: 12.45	Name: Coswig	Count:1938
472	Lat: 51.8833	Long: 8.0833	Name: Westkirchen	Count:123
473	Lat: 51.8833	Long: 8.9667	Name: Horn-Bad Meinberg	Count:2297
474	Lat: 51.8833	Long: 13.3333	Name: Ihlow	Count:2758
475	Lat: 51.8833	Long: 12.25	Name: Rosslau	Count:953
476	Lat: 51.8833	Long: 8.25	Name: Herzebrock	Count:2666
477	Lat: 51.8833	Long: 9.1833	Name: Schieder-Schwalenberg	Count:2245
478	Lat: 51.8833	Long: 11.1667	Name: Wegeleben	Count:1015
479	Lat: 51.8833	Long: 10.9667	Name: Mahndorf	Count:235
480	Lat: 51.8833	Long: 11.55	Name: Loderburg	Count:338
481	Lat: 51.4768	Long: 13.5022	Name: Elsterwerda	Count:379
482	Lat: 51.9	Long: 8.9833	Name: Horn-Bad Meinberg	Count:1415
483	Lat: 51.9	Long: 14.1167	Name: Straupitz	Count:61
484	Lat: 51.9	Long: 7.6333	Name: Hiltrup	Count:164
485	Lat: 51.9	Long: 8.2833	Name: Pixel	Count:10
486	Lat: 51.9	Long: 6.9833	Name: Velen	Count:14686
487	Lat: 51.9	Long: 14.3167	Name: Heide	Count:164
488	Lat: 51.9	Long: 10.6667	Name: Stapelburg	Count:420
489	Lat: 51.9	Long: 11.7667	Name: Calbe	Count:3548
490	Lat: 51.9	Long: 11.05	Name: Halberstadt	Count:112
491	Lat: 51.9	Long: 10.7333	Name: Veckenstedt	Count:112
492	Lat: 51.9	Long: 9.55	Name: Golmbach	Count:430
493	Lat: 51.9	Long: 10.4333	Name: Goslar	Count:5568
494	Lat: 51.9	Long: 9.65	Name: Stadtoldendorf	Count:902
495	Lat: 51.9	Long: 10.1833	Name: Seesen	Count:225
496	Lat: 51.9	Long: 10.85	Name: Heudeber	Count:420
497	Lat: 51.9	Long: 8.3833	Name: Gütersloh	Count:24603
498	Lat: 51.9	Long: 8.7333	Name: Augustdorf	Count:892
499	Lat: 51.9	Long: 8.6167	Name: Schloss Holte-Stukenbrock	Count:6450
500	Lat: 47.9961	Long: 12.0655	Name: Bruckhof	Count:123
501	Lat: 52.3966	Long: 13.4449	Name: Mahlow	Count:5907
502	Lat: 51.7	Long: 9.8667	Name: Moringen	Count:728
503	Lat: 51.7	Long: 7.4667	Name: Selm	Count:287
504	Lat: 51.7	Long: 9.4333	Name: Boffzen	Count:82
505	Lat: 51.7	Long: 11.8333	Name: Konnern	Count:256
506	Lat: 51.7	Long: 11.9833	Name: Baasdorf	Count:143
507	Lat: 51.7	Long: 14.0167	Name: Buchwaldchen	Count:1087
508	Lat: 51.7	Long: 10.7167	Name: Elbingerode	Count:717
509	Lat: 51.7	Long: 7.4	Name: Olfen	Count:3015
510	Lat: 51.7	Long: 14.625	Name: Forst	Count:8266
511	Lat: 51.7	Long: 12.3167	Name: Jessnitz	Count:1005
512	Lat: 51.7	Long: 10	Name: Northeim	Count:3220
513	Lat: 51.7	Long: 11.4167	Name: Welbsleben	Count:102
514	Lat: 51.7	Long: 14.25	Name: Leuthen	Count:553
515	Lat: 51.2302	Long: 6.7135	Name: Dusseldorf	Count:6871
516	Lat: 49.9933	Long: 8.6728	Name: Langen	Count:2481
517	Lat: 50.961	Long: 6.9544	Name: Cologne	Count:12470
518	Lat: 49.118	Long: 9.6433	Name: Michelfeld	Count:923
519	Lat: 49.4095	Long: 8.6935	Name: Heidelberg	Count:5763
520	Lat: 51.1768	Long: 6.4021	Name: Mönchengladbach	Count:5322
521	Lat: 52.75	Long: 7.5667	Name: Lahden	Count:2440
522	Lat: 52.75	Long: 13.2333	Name: Oranienburg	Count:12532
523	Lat: 52.75	Long: 13.45	Name: Wandlitz	Count:3702
524	Lat: 52.75	Long: 12.3333	Name: Rhinow	Count:256
525	Lat: 52.75	Long: 8.7	Name: Ehrenburg	Count:297
526	Lat: 52.75	Long: 12.2	Name: Garz	Count:512
527	Lat: 48.873	Long: 10.7119	Name: Wemding	Count:1558
528	Lat: 49.1964	Long: 12.5186	Name: Roding	Count:1579
529	Lat: 50.4921	Long: 12.1775	Name: Plauen	Count:1456
530	Lat: 50.7318	Long: 6.2104	Name: Stolberg	Count:8840
531	Lat: 51.6248	Long: 10.4596	Name: Bad Lauterberg im Harz	Count:953
532	Lat: 49.4917	Long: 8.3733	Name: Ludwigshafen am Rhein	Count:748
533	Lat: 52.6422	Long: 9.1406	Name: Marklohe	Count:953
534	Lat: 51.2269	Long: 7.613	Name: Lüdenscheid	Count:2307
535	Lat: 49.4356	Long: 10.9726	Name: Oberasbach	Count:15116
536	Lat: 51.9191	Long: 10.4167	Name: Goslar	Count:16614
537	Lat: 49.1067	Long: 8.8128	Name: Zaisenhausen	Count:564
538	Lat: 49.1067	Long: 9.7741	Name: Schwäbisch Hall	Count:9537
539	Lat: 47.9311	Long: 8.4543	Name: Braunlingen	Count:676
540	Lat: 51.4294	Long: 6.7744	Name: Duisburg	Count:13004
541	Lat: 50.723	Long: 7.1068	Name: Bonn	Count:9906
542	Lat: 49.4027	Long: 8.5381	Name: Bruhl	Count:4009
543	Lat: 53.6855	Long: 9.9976	Name: Norderstedt	Count:9824
544	Lat: 50.934	Long: 6.9536	Name: Cologne	Count:6748
545	Lat: 51.2323	Long: 6.2395	Name: Schwalmtal	Count:8676
546	Lat: 49.2883	Long: 9.5628	Name: Forchtenberg	Count:451
547	Lat: 48.0528	Long: 10.8689	Name: Landsberg am Lech	Count:4297
548	Lat: 51.2503	Long: 6.6899	Name: Meerbusch	Count:16234
549	Lat: 54.3167	Long: 10.9	Name: Jahnshof	Count:287
550	Lat: 54.3167	Long: 10.2833	Name: Schonkirchen	Count:2081
551	Lat: 54.3167	Long: 10.0333	Name: Melsdorf	Count:461
552	Lat: 54.3167	Long: 12.5	Name: Saal	Count:174
553	Lat: 54.3167	Long: 9.6833	Name: Buedelsdorf	Count:6184
554	Lat: 54.3167	Long: 8.95	Name: Tonning	Count:892
555	Lat: 54.3167	Long: 12.9333	Name: Niepars	Count:923
556	Lat: 49.2375	Long: 12.1011	Name: Teublitz	Count:2040
557	Lat: 51.5299	Long: 13.9508	Name: Senftenberg	Count:6737
558	Lat: 48.8832	Long: 10.4756	Name: Wallerstein	Count:1374
559	Lat: 50.3137	Long: 12.353	Name: Markneukirchen	Count:594
560	Lat: 47.6689	Long: 9.5909	Name: Tettnang Castle	Count:6594
561	Lat: 48.2737	Long: 7.7893	Name: Mahlberg	Count:943
562	Lat: 52.4992	Long: 13.3812	Name: Berlin	Count:5681
563	Lat: 52.4992	Long: 13.4307	Name: Berlin	Count:13434
564	Lat: 49.2689	Long: 9.0083	Name: Neckarbischofsheim	Count:133
565	Lat: 50.9326	Long: 6.941	Name: Cologne	Count:16983
566	Lat: 50.9326	Long: 11.5868	Name: Jena	Count:15527
567	Lat: 53.3501	Long: 13.0672	Name: Neustrelitz	Count:6655
568	Lat: 51.2166	Long: 6.6156	Name: Kaarst	Count:22203
569	Lat: 50.6137	Long: 11.3059	Name: Bad Blankenburg	Count:2871
570	Lat: 49.9003	Long: 9.6742	Name: Urspringen	Count:3230
571	Lat: 52.2162	Long: 7.1771	Name: Ochtrup	Count:6861
572	Lat: 50.4833	Long: 7.2667	Name: Bad Breisig	Count:2204
573	Lat: 50.4833	Long: 10.8333	Name: Schwarzbach	Count:174
574	Lat: 50.4833	Long: 8.45	Name: Niederquembach	Count:164
575	Lat: 50.4833	Long: 12.0833	Name: Neundorf	Count:266
576	Lat: 50.4833	Long: 12	Name: Tobertitz	Count:430
577	Lat: 50.4833	Long: 7.6	Name: Isenburg	Count:13537
578	Lat: 50.4833	Long: 7.95	Name: Wallmerod	Count:440
579	Lat: 50.4833	Long: 7.35	Name: Rheinbrohl	Count:594
580	Lat: 50.4833	Long: 12.3667	Name: Falkenstein	Count:1076
581	Lat: 50.4833	Long: 12.4	Name: Ellefeld	Count:1076
582	Lat: 50.4833	Long: 10.65	Name: Ehrenberg	Count:102
583	Lat: 50.4833	Long: 8.25	Name: Weilburg	Count:4532
584	Lat: 50.4833	Long: 7.2333	Name: Waldorf	Count:482
585	Lat: 50.4833	Long: 9.7	Name: Eichenzell	Count:246
586	Lat: 50.4833	Long: 12.2333	Name: Mechelgrun	Count:205
587	Lat: 50.4833	Long: 7.8	Name: Siershahn	Count:953
588	Lat: 50.4833	Long: 11.25	Name: Spechtsbrunn	Count:348
589	Lat: 50.4833	Long: 7.4833	Name: Melsbach	Count:707
590	Lat: 50.4833	Long: 7.9333	Name: Berod bei Wallmerod	Count:133
591	Lat: 50.4833	Long: 11.1833	Name: Ernstthal	Count:1251
592	Lat: 53.9538	Long: 10.2115	Name: Wahlstedt	Count:2133
593	Lat: 51.2432	Long: 7.2066	Name: Wuppertal	Count:3989
594	Lat: 51.1833	Long: 7.2	Name: Remscheid	Count:18265
595	Lat: 51.1833	Long: 13.4667	Name: Winkwitz	Count:338
596	Lat: 51.1833	Long: 6.5167	Name: Pesch-Blech	Count:666
597	Lat: 51.1833	Long: 10.2667	Name: Heyerode	Count:297
598	Lat: 51.1833	Long: 13.45	Name: Klosterhauser	Count:1446
599	Lat: 51.1833	Long: 9.0833	Name: Waldeck	Count:328
600	Lat: 51.1833	Long: 7.2556	Name: Remscheid	Count:6327
601	Lat: 51.1833	Long: 11.5167	Name: Bad Bibra	Count:1528
602	Lat: 51.1833	Long: 14.0167	Name: Pulsnitz	Count:2799
603	Lat: 51.1833	Long: 14.4333	Name: Bautzen	Count:1035
604	Lat: 51.1833	Long: 12.0667	Name: Hohenmolsen	Count:5476
605	Lat: 51.1833	Long: 14.1833	Name: Burkau	Count:338
606	Lat: 51.1833	Long: 14.05	Name: Ohorn	Count:338
607	Lat: 51.1833	Long: 11.0667	Name: Weissensee	Count:594
608	Lat: 51.1833	Long: 9.3667	Name: Gudensberg	Count:789
609	Lat: 51.1833	Long: 11.4167	Name: Rastenberg	Count:1189
610	Lat: 51.1833	Long: 10.1667	Name: Wanfried	Count:1804
611	Lat: 51.1833	Long: 7.0833	Name: Solingen	Count:6286
612	Lat: 51.1833	Long: 10.7	Name: Kirchheilingen	Count:266
613	Lat: 51.1833	Long: 12.4667	Name: Espenhain	Count:215
614	Lat: 51.1833	Long: 13.8333	Name: Ottendorf-Okrilla	Count:3251
615	Lat: 51.1833	Long: 10.0667	Name: Eschwege	Count:523
616	Lat: 47.8391	Long: 12.1026	Name: Rosenheim	Count:13773
617	Lat: 51.3717	Long: 12.3321	Name: Leipzig	Count:6184
618	Lat: 53.6574	Long: 7.7178	Name: Esens	Count:11250
619	Lat: 54.5215	Long: 9.8821	Name: Loose	Count:328
620	Lat: 49.7802	Long: 9.9416	Name: Wurzburg	Count:646
621	Lat: 53.6	Long: 10.2167	Name: Stapelfeld	Count:492
622	Lat: 53.6	Long: 11.7	Name: Crivitz	Count:964
623	Lat: 53.6	Long: 7.2	Name: Norden	Count:7271
624	Lat: 53.6	Long: 10.2667	Name: Trittau	Count:6091
625	Lat: 53.6	Long: 11.35	Name: Klein Rogahn	Count:307
626	Lat: 53.6	Long: 8.8833	Name: Lintig	Count:605
627	Lat: 53.6	Long: 9.4833	Name: Stade	Count:6594
628	Lat: 53.6	Long: 9.55	Name: Twielenfleth	Count:1456
629	Lat: 53.6	Long: 10.9833	Name: Neuenkirchen	Count:3784
630	Lat: 53.6	Long: 10.2833	Name: Papendorf	Count:1497
631	Lat: 53.6	Long: 10.6333	Name: Breitenfelde	Count:1384
632	Lat: 53.6	Long: 13.3	Name: Trollenhagen	Count:461
633	Lat: 53.6	Long: 7.3167	Name: Berumbur	Count:1938
634	Lat: 53.6	Long: 9.8167	Name: Schenefeld	Count:6891
635	Lat: 53.6	Long: 11.55	Name: Pinnow	Count:143
636	Lat: 49.446	Long: 11.0782	Name: Nuremberg	Count:7896
637	Lat: 50.7659	Long: 12.946	Name: Chemnitz	Count:2779
638	Lat: 49.43	Long: 8.2614	Name: Rodersheim-Gronau	Count:1097
639	Lat: 52.3908	Long: 13.0645	Name: Potsdam	Count:4625
640	Lat: 49.1406	Long: 8.0186	Name: Klingenmunster	Count:10
641	Lat: 50.7586	Long: 8.2124	Name: Haiger	Count:3661
642	Lat: 47.5314	Long: 11.1116	Name: Farchant	Count:1702
643	Lat: 51.4421	Long: 6.8982	Name: Mülheim	Count:2194
644	Lat: 49.715	Long: 8.8431	Name: Reichelsheim	Count:3620
645	Lat: 48.822	Long: 10.0654	Name: Aalen	Count:994
646	Lat: 48.6615	Long: 9.0688	Name: Schonaich	Count:4697
647	Lat: 48.4765	Long: 7.9438	Name: Offenburg	Count:11373
648	Lat: 49.3767	Long: 11.2139	Name: Feucht	Count:2953
649	Lat: 49.6917	Long: 8.4586	Name: Biblis	Count:8183
650	Lat: 53.0687	Long: 8.8697	Name: Bremen	Count:6112
651	Lat: 52.3333	Long: 14.0167	Name: Rauen	Count:215
652	Lat: 52.3333	Long: 11.25	Name: Flechtingen	Count:328
653	Lat: 52.3333	Long: 10.6667	Name: Lehre	Count:3363
654	Lat: 52.3333	Long: 9.1167	Name: Hespe	Count:1548
655	Lat: 52.3333	Long: 9.7667	Name: Dohren	Count:266
656	Lat: 52.3333	Long: 14.35	Name: Jacobsdorf	Count:574
657	Lat: 52.3333	Long: 13.35	Name: Diedersdorf	Count:881
658	Lat: 52.3333	Long: 13.4	Name: Blankenfelde	Count:2810
659	Lat: 52.3333	Long: 10.45	Name: Walle	Count:420
660	Lat: 48.4651	Long: 7.9559	Name: Offenburg	Count:21290
661	Lat: 49.3278	Long: 6.7208	Name: Wallerfangen	Count:4727
662	Lat: 49.3403	Long: 9.8008	Name: Mulfingen	Count:1087
663	Lat: 48.8833	Long: 11.1833	Name: Eichstaett	Count:2758
664	Lat: 48.8833	Long: 9.4	Name: Winnenden	Count:4850
665	Lat: 48.8833	Long: 8.2333	Name: Otigheim	Count:3445
666	Lat: 48.8833	Long: 12.35	Name: Sunching	Count:164
667	Lat: 48.8833	Long: 13.5833	Name: Mauth	Count:225
668	Lat: 48.8833	Long: 10.4	Name: Kirchheim am Ries	Count:102
669	Lat: 48.8833	Long: 9.65	Name: Welzheim	Count:4348
670	Lat: 48.8833	Long: 13.4833	Name: Neuschonau	Count:430
671	Lat: 48.8833	Long: 10.1833	Name: Westhausen	Count:769
672	Lat: 48.8833	Long: 9.8167	Name: Ruppertshofen	Count:902
673	Lat: 48.8833	Long: 9.0667	Name: Schwieberdingen	Count:389
674	Lat: 48.8833	Long: 9.1333	Name: Moglingen	Count:4071
675	Lat: 48.8833	Long: 8.7	Name: Pforzheim	Count:42704
676	Lat: 48.8833	Long: 9.35	Name: Schwaikheim	Count:3568
677	Lat: 48.8833	Long: 8.3333	Name: Malsch	Count:3845
678	Lat: 48.8833	Long: 9.7667	Name: Spraitbach	Count:3292
679	Lat: 48.8833	Long: 10	Name: Abtsgmuend	Count:1579
680	Lat: 48.8833	Long: 8.85	Name: Wiernsheim	Count:2984
681	Lat: 48.8833	Long: 12.5667	Name: Straubing	Count:1322
682	Lat: 48.8833	Long: 12.8	Name: Niederwinkling	Count:440
683	Lat: 52.9	Long: 8.4333	Name: Wildeshausen	Count:1302
684	Lat: 52.9	Long: 7.6167	Name: Lorup	Count:584
685	Lat: 52.9	Long: 10.4667	Name: Suderburg	Count:584
686	Lat: 52.9	Long: 10.5833	Name: Wrestedt	Count:2410
687	Lat: 52.9	Long: 9.0167	Name: Schwarme	Count:512
688	Lat: 52.9	Long: 8.2333	Name: Ahlhorn	Count:1240
689	Lat: 52.9	Long: 9.3	Name: Verden an der Aller	Count:225
690	Lat: 52.9	Long: 7.5167	Name: Borger	Count:1066
691	Lat: 52.9	Long: 8.5833	Name: Harpstedt	Count:6266
692	Lat: 52.9	Long: 12.55	Name: Dessow	Count:584
693	Lat: 52.9	Long: 7.7	Name: Rastdorf	Count:492
694	Lat: 52.9	Long: 12.7333	Name: Dabergotz	Count:143
695	Lat: 49.6359	Long: 8.211	Name: Monsheim	Count:420
696	Lat: 49.503	Long: 8.4693	Name: Mannheim	Count:10778
697	Lat: 52.8499	Long: 11.1649	Name: Salzwedel	Count:1835
698	Lat: 49.745	Long: 9.3292	Name: Freudenberg	Count:707
699	Lat: 52.3689	Long: 13.1273	Name: Potsdam	Count:16778
700	Lat: 50.0837	Long: 8.2863	Name: Wiesbaden	Count:256
701	Lat: 48.8734	Long: 9.3908	Name: Winnenden	Count:8368
702	Lat: 49.8484	Long: 7.8378	Name: Bad Kreuznach	Count:8358
703	Lat: 51.5324	Long: 7.206	Name: Herne	Count:12860
704	Lat: 50.9259	Long: 13.0596	Name: Frankenberg	Count:5363
705	Lat: 49.75	Long: 10.7167	Name: Wachenroth	Count:1343
706	Lat: 49.75	Long: 11.1167	Name: Weilersbach	Count:748
707	Lat: 49.75	Long: 10.1369	Name: Mainstockheim	Count:379
708	Lat: 49.75	Long: 12.2333	Name: Puchersreuth	Count:348
709	Lat: 49.75	Long: 6.6333	Name: Trier	Count:30161
710	Lat: 49.75	Long: 7.65	Name: Huhnerhof	Count:246
711	Lat: 49.75	Long: 10.0333	Name: Theilheim	Count:1661
712	Lat: 49.75	Long: 8.3989	Name: Eich	Count:687
713	Lat: 49.75	Long: 7.9333	Name: Morsfeld	Count:369
714	Lat: 49.75	Long: 11.1833	Name: Pretzfeld	Count:338
715	Lat: 49.75	Long: 6.8833	Name: Bescheid	Count:317
716	Lat: 51.5097	Long: 7.4601	Name: Dortmund	Count:38140
717	Lat: 51.5829	Long: 6.2414	Name: Kevelaer	Count:6573
718	Lat: 51.6324	Long: 8.4819	Name: Geseke	Count:10963
719	Lat: 53.6082	Long: 9.9694	Name: Hamburg	Count:17260
720	Lat: 49.0021	Long: 12.1974	Name: Barbing	Count:840
721	Lat: 51.3755	Long: 6.5091	Name: Krefeld	Count:10870
722	Lat: 51.1953	Long: 6.8324	Name: Dusseldorf	Count:19475
723	Lat: 49.3239	Long: 8.6956	Name: Nussloch	Count:215
724	Lat: 50.9938	Long: 9.141	Name: Jesberg	Count:266
725	Lat: 49.9308	Long: 9.3661	Name: Weibersbrunn	Count:1702
726	Lat: 50.4356	Long: 7.8199	Name: Montabaur	Count:6645
727	Lat: 49.1618	Long: 9.2193	Name: Heilbronn	Count:7045
728	Lat: 50.4851	Long: 8.2777	Name: Weilburg	Count:3661
729	Lat: 48.0844	Long: 11.4923	Name: Munich	Count:8460
730	Lat: 49.2144	Long: 8.692	Name: Ostringen	Count:4276
731	Lat: 49.6245	Long: 11.2401	Name: Igensdorf	Count:2338
732	Lat: 48.5216	Long: 9.4044	Name: Hulben	Count:1046
733	Lat: 54.1084	Long: 12.0687	Name: Rostock	Count:1928
734	Lat: 51.2222	Long: 13.0167	Name: Mugeln	Count:2471
735	Lat: 51.2222	Long: 7.0638	Name: Wuppertal	Count:3004
736	Lat: 53.6912	Long: 9.1542	Name: Hemmoor	Count:2245
737	Lat: 51.8832	Long: 14.4138	Name: Peitz	Count:1138
738	Lat: 48.2488	Long: 11.5677	Name: Oberschleissheim	Count:2563
739	Lat: 47.7583	Long: 8.8413	Name: Singen	Count:45452
740	Lat: 49.9742	Long: 8.3567	Name: Geinsheim	Count:605
741	Lat: 53.892	Long: 11.4636	Name: Wismar	Count:6891
742	Lat: 50.2548	Long: 11.215	Name: Mitwitz	Count:881
743	Lat: 48.1884	Long: 11.6584	Name: Unterfoehring	Count:1025
744	Lat: 50.16	Long: 8.9943	Name: Erlensee	Count:1835
745	Lat: 54.3667	Long: 10.5333	Name: Satjendorf	Count:348
746	Lat: 54.3667	Long: 9.6667	Name: Neu Duvenstedt	Count:789
747	Lat: 54.3667	Long: 10.2833	Name: Probsteierhagen	Count:799
748	Lat: 54.3667	Long: 13.3167	Name: Bergen auf Ruegen	Count:71
749	Lat: 54.3667	Long: 10.4167	Name: Bendfeld	Count:133
750	Lat: 54.3667	Long: 13.0333	Name: Prohn	Count:1784
751	Lat: 54.3667	Long: 9.0833	Name: Friedrichstadt	Count:830
752	Lat: 54.3667	Long: 10.9833	Name: Heiligenhafen	Count:3815
753	Lat: 54.3667	Long: 10.2	Name: Heikendorf	Count:2020
754	Lat: 54.3667	Long: 10.0167	Name: Gettorf	Count:4779
755	Lat: 54.3667	Long: 10.05	Name: Altwittenbek	Count:41
756	Lat: 50.794	Long: 12.786	Name: Chemnitz	Count:820
757	Lat: 48.7895	Long: 9.013	Name: Leonberg	Count:19475
758	Lat: 48.06	Long: 9.5968	Name: Bad Buchau	Count:666
759	Lat: 50.8768	Long: 7.0484	Name: Cologne	Count:3712
760	Lat: 50.8	Long: 11.6667	Name: Oberbodnitz	Count:533
761	Lat: 50.8	Long: 10.0667	Name: Vacha	Count:502
762	Lat: 50.8	Long: 13.4167	Name: Mulda	Count:687
763	Lat: 50.8	Long: 12.3667	Name: Neukirchen	Count:287
764	Lat: 50.8	Long: 8	Name: Neunkirchen	Count:4707
765	Lat: 50.8	Long: 12.2833	Name: Blankenhain	Count:205
766	Lat: 50.8	Long: 10.3	Name: Barchfeld	Count:943
767	Lat: 50.8	Long: 11.9167	Name: Lederhose	Count:153
768	Lat: 50.8	Long: 7.6833	Name: Wissen	Count:410
769	Lat: 50.8	Long: 10.85	Name: Gossel	Count:2328
770	Lat: 50.8	Long: 11.5833	Name: Kahla	Count:2697
771	Lat: 50.8	Long: 7.8833	Name: Kirchen	Count:4697
772	Lat: 50.8	Long: 9.6	Name: Niederaula	Count:317
773	Lat: 50.8	Long: 12.8	Name: Mittelbach	Count:1281
774	Lat: 50.8	Long: 12.2	Name: Ronneburg	Count:451
775	Lat: 50.8	Long: 6.7847	Name: Erftstadt	Count:21218
776	Lat: 50.8	Long: 6.4833	Name: Düren	Count:30530
777	Lat: 50.8	Long: 9.3833	Name: Ottrau	Count:471
778	Lat: 50.8	Long: 6.1167	Name: Haaren	Count:482
779	Lat: 50.8	Long: 13.1667	Name: Augustusburg	Count:1117
780	Lat: 50.8	Long: 7.2	Name: Siegburg	Count:676
781	Lat: 48.6	Long: 12.05	Name: Weihmichl	Count:1107
782	Lat: 48.6	Long: 11.7667	Name: Rudelzhausen	Count:1210
783	Lat: 48.6	Long: 9.2333	Name: Neckartenzlingen	Count:687
784	Lat: 48.6	Long: 9.8	Name: Bad Uberkingen	Count:297
785	Lat: 48.6	Long: 10.2667	Name: Hermaringen	Count:102
786	Lat: 48.6	Long: 11.2167	Name: Langenmosen	Count:1435
787	Lat: 48.6	Long: 10.8667	Name: Ellgau	Count:348
788	Lat: 48.6	Long: 9.5	Name: Bissingen an der Teck	Count:974
789	Lat: 48.6	Long: 10.7167	Name: Buttenwiesen	Count:3948
790	Lat: 48.6	Long: 13.0833	Name: Aldersbach	Count:1487
791	Lat: 48.6	Long: 9.65	Name: Gruibingen	Count:871
792	Lat: 48.6	Long: 11.8833	Name: Volkenschwand	Count:1035
793	Lat: 48.6	Long: 8.1167	Name: Kappelrodeck	Count:2051
794	Lat: 48.6	Long: 9.3	Name: Grossbettlingen	Count:1784
795	Lat: 48.6	Long: 9.3667	Name: Frickenhausen	Count:2389
796	Lat: 48.6	Long: 13.6833	Name: Habersdorf	Count:194
797	Lat: 48.6	Long: 8.8667	Name: Herrenberg	Count:2666
798	Lat: 48.6	Long: 9.2167	Name: Schlaitdorf	Count:1148
799	Lat: 48.6	Long: 12.4333	Name: Unterweigendorf	Count:512
800	Lat: 48.6	Long: 10.8	Name: Ehingen	Count:615
801	Lat: 51.8441	Long: 12.2475	Name: Dessau	Count:4727
802	Lat: 50.1648	Long: 8.5706	Name: Steinbach am Taunus	Count:1579
803	Lat: 51.7797	Long: 8.3206	Name: Langenberg	Count:1066
804	Lat: 50.6762	Long: 12.6093	Name: Wildenfels	Count:728
805	Lat: 50.6762	Long: 8.2855	Name: Herborn	Count:6994
806	Lat: 49.0094	Long: 8.7275	Name: Ruit	Count:194
807	Lat: 53.4065	Long: 9.9256	Name: Rosengarten	Count:5302
808	Lat: 49.6735	Long: 12.1661	Name: Weiden	Count:9988
809	Lat: 52.1221	Long: 10.3761	Name: Salzgitter	Count:3845
810	Lat: 50.9748	Long: 12.4909	Name: Nobitz	Count:215
811	Lat: 52.3585	Long: 8.3046	Name: Bohmte	Count:8163
812	Lat: 52.2833	Long: 8.9167	Name: Minden	Count:15455
813	Lat: 52.2833	Long: 11.6833	Name: Zielitz	Count:533
814	Lat: 52.2833	Long: 14.0667	Name: Bad Saarow	Count:871
815	Lat: 52.2833	Long: 13.6667	Name: Senzig	Count:502
816	Lat: 52.2833	Long: 9	Name: Nordholz	Count:235
817	Lat: 52.2833	Long: 13.4333	Name: Rangsdorf	Count:543
818	Lat: 52.2833	Long: 7.9167	Name: Lotte	Count:3066
819	Lat: 52.2833	Long: 7.45	Name: Rheine	Count:2061
820	Lat: 52.2833	Long: 10.9833	Name: Mariental	Count:174
821	Lat: 52.2833	Long: 13.6167	Name: Konigs Wusterhausen	Count:3568
822	Lat: 52.2833	Long: 12.8833	Name: Fichtenwalde	Count:574
823	Lat: 52.2833	Long: 8.6667	Name: Huellhorst	Count:3261
824	Lat: 48.8851	Long: 8.7307	Name: Pforzheim	Count:9394
825	Lat: 49.8094	Long: 8.4728	Name: Stockstadt am Rhein	Count:1804
826	Lat: 47.9293	Long: 9.2436	Name: Pfullendorf	Count:4389
827	Lat: 53.1178	Long: 8.8947	Name: Bremen	Count:12542
828	Lat: 50.3327	Long: 10.2248	Name: Bad Neustadt an der Saale	Count:4040
829	Lat: 50.8284	Long: 12.9586	Name: Chemnitz	Count:4122
830	Lat: 53.161	Long: 11.0082	Name: Hitzacker	Count:676
831	Lat: 49.415	Long: 8.21	Name: Niederkirchen bei Deidesheim	Count:892
832	Lat: 53.8833	Long: 10.4667	Name: Rehhorst	Count:338
833	Lat: 53.8833	Long: 10.3833	Name: Itzstedt	Count:1056
834	Lat: 53.8833	Long: 8.7	Name: Cuxhaven	Count:1620
835	Lat: 53.8833	Long: 9.4333	Name: Bahrenfleth	Count:164
836	Lat: 53.8833	Long: 12.0667	Name: Kassow	Count:399
837	Lat: 53.8833	Long: 9.4833	Name: Kremperheide	Count:1405
838	Lat: 53.8833	Long: 9.5333	Name: Neuenbrook	Count:2502
839	Lat: 53.8833	Long: 14.1667	Name: Garz	Count:697
840	Lat: 53.8833	Long: 12.55	Name: Gross Wustenfelde	Count:328
841	Lat: 53.8833	Long: 11.6	Name: Sellin	Count:153
842	Lat: 53.8833	Long: 9.5833	Name: Lagerdorf	Count:1589
843	Lat: 49.4925	Long: 9.7736	Name: Bad Mergentheim	Count:10542
844	Lat: 49.3517	Long: 8.6846	Name: Leimen	Count:10132
845	Lat: 52.7103	Long: 9.0734	Name: Wietzen	Count:235
846	Lat: 52.206	Long: 8.8106	Name: Bad Oeynhausen	Count:4932
847	Lat: 52.3384	Long: 9.2904	Name: Heuerssen	Count:769
848	Lat: 48.5324	Long: 10.2355	Name: Niederstotzingen	Count:61
849	Lat: 48.8974	Long: 11.1716	Name: Eichstaett	Count:3876
850	Lat: 53.5628	Long: 10.0264	Name: Hamburg	Count:6830
851	Lat: 48.9667	Long: 9.4	Name: Aspach	Count:5086
852	Lat: 48.9667	Long: 10.1333	Name: Ellwangen	Count:482
853	Lat: 48.9667	Long: 9.2667	Name: Murr	Count:1610
854	Lat: 48.9667	Long: 12.9833	Name: Hochstrasse	Count:1148
855	Lat: 48.9667	Long: 12.9667	Name: Gotteszell	Count:728
856	Lat: 48.9667	Long: 10.4667	Name: Fremdingen	Count:676
857	Lat: 48.9667	Long: 12.1667	Name: Obertraubling	Count:82
858	Lat: 48.9667	Long: 9.1333	Name: Bietigheim-Bissingen	Count:19136
859	Lat: 48.9667	Long: 13.1333	Name: Regen	Count:297
860	Lat: 48.9667	Long: 10.6167	Name: Hainsfarth	Count:933
861	Lat: 48.9667	Long: 12.6833	Name: Mitterfels	Count:1446
862	Lat: 48.9667	Long: 8.8	Name: Otisheim	Count:1210
863	Lat: 48.9667	Long: 9.5667	Name: Murrhardt	Count:348
864	Lat: 48.9667	Long: 8.75	Name: Olbronn-Durrn	Count:687
865	Lat: 48.9667	Long: 12.3833	Name: Pfatter	Count:1456
866	Lat: 48.9667	Long: 9.2833	Name: Steinheim am der Murr	Count:5732
867	Lat: 48.9667	Long: 12.3333	Name: Geisling	Count:194
868	Lat: 48.9667	Long: 8.6167	Name: Konigsbach-Stein	Count:3220
869	Lat: 49.9045	Long: 12.1843	Name: Wiesau	Count:3507
870	Lat: 48.708	Long: 8.7529	Name: Calw	Count:7681
871	Lat: 48.9354	Long: 8.9606	Name: Vaihingen an der Enz	Count:1158
872	Lat: 51.507	Long: 6.7963	Name: Duisburg	Count:6696
873	Lat: 52.2472	Long: 8.7858	Name: Bad Oeynhausen	Count:7650
874	Lat: 47.795	Long: 12.5338	Name: Bayern	Count:194
875	Lat: 49.1336	Long: 8.9097	Name: Eppingen	Count:8030
876	Lat: 50.1514	Long: 11.9505	Name: Kirchenlamitz	Count:399
877	Lat: 51.7612	Long: 14.3544	Name: Cottbus	Count:4481
878	Lat: 49.2111	Long: 9.2019	Name: Untereisesheim	Count:789
879	Lat: 52.6986	Long: 7.2933	Name: Meppen	Count:15968
880	Lat: 51.2216	Long: 6.7898	Name: Dusseldorf	Count:8009
881	Lat: 48.8109	Long: 11.8595	Name: Abensberg	Count:2707
882	Lat: 50.8197	Long: 12.9403	Name: Chemnitz	Count:9722
883	Lat: 49.4583	Long: 12.4186	Name: Oberviechtach	Count:1651
884	Lat: 48.7607	Long: 9.2218	Name: Stuttgart	Count:3927
885	Lat: 50.5981	Long: 12.6588	Name: Schlema	Count:461
886	Lat: 48.107	Long: 12.1119	Name: Albaching	Count:153
887	Lat: 51.5256	Long: 6.8517	Name: Oberhausen	Count:21629
888	Lat: 50.0442	Long: 10.2267	Name: Schweinfurt	Count:6594
889	Lat: 50.4494	Long: 9.9194	Name: Gersfeld	Count:789
890	Lat: 51.5161	Long: 7.4683	Name: Dortmund	Count:51196
891	Lat: 47.865	Long: 8.0704	Name: Feldberg-Ort	Count:789
892	Lat: 50.4853	Long: 11.3887	Name: Ludwigsstadt	Count:1979
893	Lat: 49.2431	Long: 6.9757	Name: Saarbrücken	Count:18121
894	Lat: 51.2734	Long: 6.6484	Name: Meerbusch	Count:8132
895	Lat: 49.3667	Long: 7.05	Name: Illingen	Count:6727
896	Lat: 49.3667	Long: 6.65	Name: Rehlingen-Siersburg	Count:307
897	Lat: 49.3667	Long: 10.2167	Name: Neusitz	Count:1938
898	Lat: 49.3667	Long: 6.75	Name: Diefflen	Count:369
899	Lat: 49.3667	Long: 7.6667	Name: Krickenbach	Count:1528
900	Lat: 49.3667	Long: 6.6833	Name: Rehlingen-Siersburg	Count:5097
901	Lat: 49.3667	Long: 7.6333	Name: Queidersbach	Count:2081
902	Lat: 49.3667	Long: 7.9333	Name: Elmstein	Count:892
903	Lat: 49.3667	Long: 7.1333	Name: Schiffweiler	Count:10183
904	Lat: 49.5986	Long: 10.9676	Name: Erlangen	Count:29043
905	Lat: 49.3106	Long: 9.4683	Name: Jagsthausen	Count:71
906	Lat: 49.7836	Long: 8.4744	Name: Biebesheim	Count:1856
907	Lat: 48.8154	Long: 13.548	Name: Freyung	Count:2163
908	Lat: 51.0964	Long: 6.84	Name: Dormagen	Count:10276
909	Lat: 49.9817	Long: 11.6139	Name: Bindlach	Count:3117
910	Lat: 49.9817	Long: 9.09	Name: Mainaschaff	Count:3815
911	Lat: 51.1803	Long: 6.9472	Name: Hilden	Count:8799
912	Lat: 51.013	Long: 13.7988	Name: Dresden	Count:4656
913	Lat: 51.5707	Long: 9.2402	Name: Borgentreich	Count:646
914	Lat: 48.7142	Long: 9.378	Name: Deizisau	Count:2081
915	Lat: 52.3976	Long: 13.2523	Name: Teltow	Count:22080
916	Lat: 47.641	Long: 10.8276	Name: Halblech	Count:471
917	Lat: 51.0584	Long: 8.7833	Name: Frankenberg	Count:31966
918	Lat: 50.809	Long: 12.3461	Name: Crimmitschau	Count:7240
919	Lat: 50.9655	Long: 7.1823	Name: Bergisch Gladbach	Count:9096
920	Lat: 53.95	Long: 12.1167	Name: Schwaan	Count:840
921	Lat: 53.95	Long: 9.15	Name: Eddelak	Count:235
922	Lat: 53.95	Long: 9.45	Name: Oldendorf	Count:840
923	Lat: 53.95	Long: 13.55	Name: Oldenburg	Count:851
924	Lat: 53.95	Long: 13.4833	Name: Gribow	Count:307
925	Lat: 53.95	Long: 13.4167	Name: Gutzkow	Count:102
926	Lat: 53.95	Long: 12.2667	Name: Laage	Count:389
927	Lat: 53.95	Long: 10.2167	Name: Wahlstedt	Count:379
928	Lat: 53.95	Long: 9	Name: Marne	Count:1558
929	Lat: 53.95	Long: 9.75	Name: Quarnstedt	Count:287
930	Lat: 53.95	Long: 10.7333	Name: Ratekau	Count:1005
931	Lat: 53.95	Long: 13.85	Name: Lassan	Count:143
932	Lat: 53.95	Long: 11.2333	Name: Klutz	Count:553
933	Lat: 53.95	Long: 10.25	Name: Fahrenkrug	Count:4932
934	Lat: 53.95	Long: 10.7	Name: Hobbersdorf	Count:215
935	Lat: 50.3173	Long: 11.8961	Name: Hof	Count:4409
936	Lat: 50.8565	Long: 9.4559	Name: Oberaula	Count:1025
937	Lat: 50.1431	Long: 7.1789	Name: Cochem	Count:2430
938	Lat: 49.2833	Long: 6.8	Name: Bous	Count:892
939	Lat: 49.2833	Long: 7.6	Name: Hoheinod	Count:2799
940	Lat: 49.2833	Long: 10.7833	Name: Neuendettelsau	Count:410
941	Lat: 49.2833	Long: 7.7667	Name: Clausen	Count:820
942	Lat: 49.2833	Long: 7.1167	Name: Sankt Ingbert	Count:2492
943	Lat: 49.2833	Long: 7.2333	Name: Kirkel	Count:10142
944	Lat: 49.2833	Long: 7.6667	Name: Waldfischbach-Burgalben	Count:4184
945	Lat: 49.2833	Long: 7.1667	Name: Rohrbach	Count:1538
946	Lat: 49.2833	Long: 7.0333	Name: Urweiler	Count:1610
947	Lat: 49.2833	Long: 6.8833	Name: Puttlingen	Count:338
948	Lat: 47.8851	Long: 8.1661	Name: Lenzkirch	Count:461
949	Lat: 49.4481	Long: 8.2386	Name: Gonnheim	Count:1856
950	Lat: 48.4942	Long: 9.1666	Name: Reutlingen	Count:30213
951	Lat: 50.7884	Long: 6.1044	Name: Aachen	Count:11506
952	Lat: 51.8204	Long: 8.164	Name: Oelde	Count:8071
953	Lat: 54.1667	Long: 12.35	Name: Blankenhagen	Count:440
954	Lat: 54.1667	Long: 9.3333	Name: Bunsoh	Count:553
955	Lat: 54.1667	Long: 9.1833	Name: Nordhastedt	Count:153
956	Lat: 54.1667	Long: 9.8833	Name: Borgdorf-Seedorf	Count:461
957	Lat: 54.1667	Long: 9	Name: Wohrden	Count:215
958	Lat: 54.1667	Long: 10.4167	Name: Ploen	Count:4225
959	Lat: 54.1667	Long: 10.7167	Name: Kasseedorf	Count:307
960	Lat: 54.1667	Long: 9.8667	Name: Nortorf	Count:840
961	Lat: 54.1667	Long: 10.05	Name: Wattenbek	Count:1333
962	Lat: 54.1667	Long: 8.8667	Name: Westerdeichstrich	Count:2471
963	Lat: 48.9961	Long: 8.798	Name: Maulbronn	Count:758
964	Lat: 52.5167	Long: 13.9	Name: Rehfelde	Count:1087
965	Lat: 52.5167	Long: 10.7833	Name: Barwedel	Count:440
966	Lat: 52.5167	Long: 8.0667	Name: Neuenkirchen	Count:2276
967	Lat: 52.5167	Long: 13.7833	Name: Petershagen	Count:2471
968	Lat: 52.5167	Long: 13.0833	Name: Dallgow-Doeberitz	Count:717
969	Lat: 52.5167	Long: 10.65	Name: Sassenburg	Count:2974
970	Lat: 52.5167	Long: 8.2	Name: Damme	Count:2625
971	Lat: 52.5167	Long: 10.2167	Name: Broeckel	Count:1384
972	Lat: 52.5167	Long: 9.0667	Name: Stolzenau	Count:3897
973	Lat: 52.5167	Long: 9.7333	Name: Scherenbostel	Count:297
974	Lat: 52.5167	Long: 7.3167	Name: Lingen	Count:9455
975	Lat: 52.5167	Long: 10.6333	Name: Sassenburg	Count:30
976	Lat: 52.5167	Long: 10.8	Name: Tiddische	Count:369
977	Lat: 52.5167	Long: 13.5	Name: Berlin	Count:1128
978	Lat: 52.5167	Long: 13.4	Name: Berlin	Count:3072165
979	Lat: 51.2172	Long: 12.3144	Name: Zwenkau	Count:410
980	Lat: 49.0253	Long: 11.9611	Name: Nittendorf	Count:2122
981	Lat: 49.0561	Long: 8.9269	Name: Zaberfeld	Count:1774
982	Lat: 51.8083	Long: 12.241	Name: Dessau	Count:3138
983	Lat: 51.2165	Long: 6.7836	Name: Dusseldorf	Count:17844
984	Lat: 53.8672	Long: 10.6478	Name: Lübeck	Count:5753
985	Lat: 49.8719	Long: 9.1678	Name: Kleinwallstadt	Count:2984
986	Lat: 49.8719	Long: 8.6484	Name: Darmstadt	Count:13342
987	Lat: 49.8719	Long: 9.7211	Name: Billingshausen	Count:194
988	Lat: 50.7294	Long: 6.4771	Name: Kreuzau	Count:9681
989	Lat: 49.4403	Long: 11.081	Name: Nuremberg	Count:4656
990	Lat: 49.4403	Long: 8.3086	Name: Dannstadt-Schauernheim	Count:5281
991	Lat: 51.2678	Long: 7.1285	Name: Wuppertal	Count:3404
992	Lat: 50.1186	Long: 8.4885	Name: Liederbach	Count:1169
993	Lat: 49.4835	Long: 11.8283	Name: Poppenricht	Count:266
994	Lat: 51.804	Long: 10.9476	Name: Blankenburg	Count:3292
995	Lat: 49.955	Long: 9.7728	Name: Karlstadt am Main	Count:4553
996	Lat: 49.5667	Long: 11.1333	Name: Heroldsberg	Count:5343
997	Lat: 49.5667	Long: 9.7	Name: Lauda-Konigshofen	Count:2102
998	Lat: 49.5667	Long: 7.35	Name: Thallichtenberg	Count:4143
999	Lat: 49.5667	Long: 11.7	Name: Edelsfeld	Count:225
1000	Lat: 49.5667	Long: 7.8667	Name: Winnweiler	Count:2861
1001	Lat: 49.5667	Long: 10.7333	Name: Wilhelmsdorf	Count:1230
1002	Lat: 49.5667	Long: 8.85	Name: Neustadt	Count:7281
1003	Lat: 49.5667	Long: 10.2	Name: Gollhofen	Count:184
1004	Lat: 49.5667	Long: 7.6167	Name: Rutsweiler an der Lauter	Count:194
1005	Lat: 49.5667	Long: 7.2833	Name: Fohren-Linden	Count:276
1006	Lat: 49.5667	Long: 7.4667	Name: Altenglan	Count:1015
1007	Lat: 48.8696	Long: 8.6704	Name: Pforzheim	Count:10501
1008	Lat: 48.6455	Long: 9.3062	Name: Wolfschlugen	Count:4102
1009	Lat: 48.5486	Long: 10.8531	Name: Meitingen	Count:4779
1010	Lat: 48.8852	Long: 8.9962	Name: Eberdingen	Count:3281
1011	Lat: 49.9204	Long: 8.3368	Name: Nackenheim	Count:4122
1012	Lat: 48.1822	Long: 11.5331	Name: Munich	Count:11855
1013	Lat: 49.0711	Long: 9.2928	Name: Abstatt	Count:5702
1014	Lat: 51.3756	Long: 7.7697	Name: Hemer	Count:11445
1015	Lat: 52.4553	Long: 10.0074	Name: Burgdorf, Hanover	Count:8666
1016	Lat: 49.7997	Long: 12.1589	Name: Windischeschenbach	Count:1815
1017	Lat: 49.7997	Long: 8.9994	Name: Hochst im Odenwald	Count:4276
1018	Lat: 48.5672	Long: 12.7377	Name: Simbach	Count:174
1019	Lat: 51.0904	Long: 6.6067	Name: Grevenbroich	Count:12932
1020	Lat: 52.5154	Long: 13.3194	Name: Berlin	Count:8819
1021	Lat: 52.5154	Long: 13.2618	Name: Berlin	Count:3784
1022	Lat: 49.7584	Long: 8.4861	Name: Gernsheim	Count:3292
1023	Lat: 54.1054	Long: 10.4302	Name: Bosau	Count:328
1024	Lat: 49.249	Long: 7.3649	Name: Zweibrücken	Count:13711
1025	Lat: 51.0708	Long: 13.6728	Name: Dresden	Count:7825
1026	Lat: 49.1311	Long: 9.3272	Name: Lehrensteinsfeld	Count:1999
1027	Lat: 51.5125	Long: 7.477	Name: Dortmund	Count:9445
1028	Lat: 48.1558	Long: 11.5409	Name: Munich	Count:20603
1029	Lat: 51.0703	Long: 13.0187	Name: Waldheim	Count:2225
1030	Lat: 49.6989	Long: 9.97	Name: Fuchsstadt	Count:1312
1031	Lat: 54.1282	Long: 12.1761	Name: Rostock	Count:4574
1032	Lat: 47.853	Long: 12.7868	Name: Teisendorf	Count:215
1033	Lat: 53.1228	Long: 8.1138	Name: Edewecht	Count:4594
1034	Lat: 47.5355	Long: 10.2849	Name: Burgberg	Count:1169
1035	Lat: 51.1102	Long: 6.9604	Name: Langenfeld	Count:39114
1036	Lat: 52.8	Long: 12.8	Name: Tarmow	Count:328
1037	Lat: 52.8	Long: 13.3	Name: Oranienburg	Count:6040
1038	Lat: 52.8	Long: 12.4667	Name: Dreetz	Count:184
1039	Lat: 48.2292	Long: 11.4547	Name: Karlsfeld	Count:3138
1040	Lat: 48.2043	Long: 11.5585	Name: Munich	Count:6102
1041	Lat: 51.2878	Long: 7.194	Name: Wuppertal	Count:5866
1042	Lat: 51.2878	Long: 9.4706	Name: Kassel	Count:4522
1043	Lat: 48.95	Long: 13.2	Name: Rinchnach	Count:184
1044	Lat: 48.95	Long: 9.25	Name: Benningen am Neckar	Count:482
1045	Lat: 48.95	Long: 9.4333	Name: Backnang	Count:2287
1046	Lat: 48.95	Long: 8.4	Name: Ettlingen	Count:1815
1047	Lat: 48.95	Long: 10.0167	Name: Adelmannsfelden	Count:276
1048	Lat: 48.95	Long: 8.8333	Name: Muhlacker	Count:953
1049	Lat: 48.95	Long: 8.6667	Name: Eisingen	Count:8040
1050	Lat: 48.95	Long: 11.2	Name: Pollenfeld	Count:738
1051	Lat: 48.95	Long: 12.55	Name: Kirchroth	Count:1528
1052	Lat: 48.95	Long: 12.4667	Name: Aholfing	Count:389
1053	Lat: 48.95	Long: 8.9167	Name: Illingen	Count:1056
1054	Lat: 48.95	Long: 8.5667	Name: Wilferdingen	Count:143
1055	Lat: 49.9656	Long: 8.0294	Name: Gau-Algesheim	Count:2594
1056	Lat: 51.005	Long: 10.1763	Name: Herleshausen	Count:482
1057	Lat: 49.9836	Long: 8.1767	Name: Mainz	Count:2522
1058	Lat: 49.994	Long: 9.572	Name: Lohr a. Main	Count:1097
1059	Lat: 50.2833	Long: 10.2333	Name: Strahlungen	Count:717
1060	Lat: 50.2833	Long: 7.4667	Name: Niederfell	Count:30
1061	Lat: 50.2833	Long: 8.0833	Name: Burgschwalbach	Count:697
1062	Lat: 50.2833	Long: 7.95	Name: Katzenelnbogen	Count:943
1063	Lat: 50.2833	Long: 9.8	Name: Oberleichtersbach	Count:164
1064	Lat: 50.2833	Long: 11.95	Name: Dohlau	Count:1169
1065	Lat: 50.2833	Long: 8.0333	Name: Mudershausen	Count:420
1066	Lat: 50.2833	Long: 10.7333	Name: Neuhof	Count:892
1067	Lat: 50.2833	Long: 11	Name: Dorfles	Count:625
1068	Lat: 50.2833	Long: 7.45	Name: Lehmen	Count:174
1069	Lat: 50.2833	Long: 8.95	Name: Altenstadt	Count:7045
1070	Lat: 50.2833	Long: 7.2833	Name: Polch	Count:533
1071	Lat: 50.2833	Long: 12.2333	Name: Bad Elster	Count:369
1072	Lat: 50.2833	Long: 7.6667	Name: Braubach	Count:697
1073	Lat: 50.2833	Long: 11.0667	Name: Rodental	Count:1815
1074	Lat: 50.2833	Long: 7.976	Name: Katzenelnbogen	Count:461
1075	Lat: 50.2833	Long: 9.3667	Name: Bad Soden-Salmunster	Count:1107
1076	Lat: 50.2833	Long: 7.8333	Name: Singhofen	Count:2871
1077	Lat: 50.2833	Long: 11.6167	Name: Schwarzenbach am Wald	Count:707
1078	Lat: 50.2833	Long: 11.6667	Name: Helmbrechts	Count:440
1079	Lat: 50.2833	Long: 7.55	Name: Waldesch	Count:933
1080	Lat: 51.4499	Long: 10.3433	Name: Worbis	Count:799
1081	Lat: 51.4499	Long: 6.6901	Name: Duisburg	Count:12552
1082	Lat: 49.0744	Long: 9.1469	Name: Lauffen am Neckar	Count:61
1083	Lat: 51.1667	Long: 12.5667	Name: Kitzscher	Count:215
1084	Lat: 51.1667	Long: 6.9333	Name: Hilden	Count:4399
1085	Lat: 51.1667	Long: 13.5667	Name: Weinbohla	Count:1384
1086	Lat: 51.1667	Long: 15	Name: Görlitz	Count:4481
1087	Lat: 51.1667	Long: 6.8333	Name: Holthausen	Count:51
1088	Lat: 51.1667	Long: 10.5667	Name: Altengottern	Count:923
1089	Lat: 51.1667	Long: 13.6833	Name: Moritzburg	Count:2615
1090	Lat: 51.1667	Long: 13.9	Name: Radeberg	Count:5035
1091	Lat: 51.1667	Long: 10.4167	Name: Oberdorla	Count:687
1092	Lat: 51.1667	Long: 7.9667	Name: Finnentrop	Count:3148
1093	Lat: 51.1667	Long: 12.4333	Name: Neukieritzsch	Count:1374
1094	Lat: 51.1667	Long: 10.9833	Name: Straussfurt	Count:1117
1095	Lat: 51.9266	Long: 9.6245	Name: Eschershausen	Count:974
1096	Lat: 50.383	Long: 8.0611	Name: Limburg an der Lahn	Count:779
1097	Lat: 49.8783	Long: 9.8492	Name: Thungersheim	Count:1333
1098	Lat: 47.8833	Long: 11.9167	Name: Bruckmuhl	Count:2748
1099	Lat: 47.8833	Long: 11.7	Name: Holzkirchen	Count:502
1100	Lat: 47.8833	Long: 10.6667	Name: Mauerstetten	Count:123
1101	Lat: 47.8833	Long: 12.85	Name: Oberndorf	Count:338
1102	Lat: 47.8833	Long: 9.6167	Name: Steinhausen	Count:410
1103	Lat: 47.8833	Long: 10.9167	Name: Kinsau	Count:1025
1104	Lat: 47.8833	Long: 12.4	Name: Breitbrunn am Chiemsee	Count:584
1105	Lat: 47.8833	Long: 10.6167	Name: Kaufbeuren	Count:1958
1106	Lat: 47.8833	Long: 11.0333	Name: Wessobrunn Abbey	Count:1025
1107	Lat: 47.8833	Long: 7.6667	Name: Heitersheim	Count:1343
1108	Lat: 47.8833	Long: 7.65	Name: Eschbach	Count:1271
1109	Lat: 47.8833	Long: 9.2167	Name: Lautenbach	Count:2266
1110	Lat: 47.8833	Long: 12.65	Name: Traunstein	Count:1856
1111	Lat: 47.8833	Long: 9.6333	Name: Mochenwangen	Count:153
1112	Lat: 47.9	Long: 11.85	Name: Feldkirchen-Westerham	Count:1938
1113	Lat: 47.9	Long: 12.6	Name: Nußdorf (Chiemgau)	Count:287
1114	Lat: 47.9	Long: 11.7833	Name: Valley	Count:1076
1115	Lat: 47.9	Long: 10.1333	Name: Lautrach	Count:1322
1116	Lat: 47.9	Long: 12.0833	Name: Grosskarolinenfeld	Count:687
1117	Lat: 47.9	Long: 11.3667	Name: Munsing	Count:2276
1118	Lat: 47.9	Long: 9.6167	Name: Wolpertswende	Count:758
1119	Lat: 47.9	Long: 9.2333	Name: Pfullendorf	Count:328
1120	Lat: 47.9	Long: 11.5667	Name: Reichertshausen	Count:307
1121	Lat: 47.9	Long: 9.4333	Name: Riedhausen	Count:256
1122	Lat: 47.9	Long: 8.1667	Name: Titisee-Neustadt	Count:6481
1123	Lat: 47.9	Long: 8.1	Name: Hinterzarten	Count:625
1124	Lat: 47.9	Long: 8.15	Name: Titisee-Neustadt	Count:676
1125	Lat: 47.9	Long: 10.5667	Name: Irsee	Count:1599
1126	Lat: 47.9	Long: 12.2	Name: Prutting	Count:1087
1127	Lat: 47.9	Long: 10.9333	Name: Apfeldorf	Count:1374
1128	Lat: 47.9	Long: 10.0667	Name: Rieden	Count:1435
1129	Lat: 47.9	Long: 9.5167	Name: Ebenweiler	Count:215
1130	Lat: 47.9	Long: 11.1833	Name: Pahl	Count:420
1131	Lat: 47.9	Long: 12.3	Name: Bad Endorf	Count:3302
1132	Lat: 47.9	Long: 8.6167	Name: Gutmadingen	Count:297
1133	Lat: 51.4194	Long: 6.8937	Name: Mülheim	Count:5394
1134	Lat: 49.5992	Long: 8.7347	Name: Morlenbach	Count:1548
1135	Lat: 50.0513	Long: 10.3022	Name: Schonungen	Count:2953
1136	Lat: 50.962	Long: 8.0064	Name: Kreuztal	Count:7496
1137	Lat: 51.5167	Long: 8.6	Name: Buren	Count:133
1138	Lat: 51.5167	Long: 13.4	Name: Bad Liebenwerda	Count:1630
1139	Lat: 51.5167	Long: 11.5167	Name: Wimmelburg	Count:830
1140	Lat: 51.5167	Long: 14.0167	Name: Buchwalde	Count:574
1141	Lat: 51.5167	Long: 7.45	Name: Dortmund	Count:31392
1142	Lat: 51.5167	Long: 6.9167	Name: Bottrop	Count:25474
1143	Lat: 51.5167	Long: 7.1833	Name: Wanne-Eickel	Count:1620
1144	Lat: 51.5167	Long: 7.05	Name: Gelsenkirchen	Count:28705
1145	Lat: 51.5167	Long: 14.7	Name: Krauschwitz	Count:1548
1146	Lat: 51.5167	Long: 14.6333	Name: Weisswasser	Count:2358
1147	Lat: 51.5167	Long: 13.35	Name: Bad Liebenwerda	Count:20
1148	Lat: 51.5167	Long: 10.9333	Name: Rottleberode	Count:943
1149	Lat: 51.5167	Long: 6.3333	Name: Geldern	Count:3999
1150	Lat: 51.5167	Long: 10.8	Name: Nordhausen	Count:10573
1151	Lat: 53.5472	Long: 8.335	Name: Butjadingen	Count:861
1152	Lat: 50.9713	Long: 7.0104	Name: Cologne	Count:7455
1153	Lat: 48.7532	Long: 9.243	Name: Stuttgart	Count:10194
1154	Lat: 53.2558	Long: 10.4398	Name: Lüneburg	Count:5261
1155	Lat: 51.9162	Long: 7.7108	Name: Münster	Count:4994
1156	Lat: 52.1765	Long: 10.0979	Name: Schellerten	Count:1804
1157	Lat: 50.8271	Long: 9.0152	Name: Stadtallendorf	Count:3876
1158	Lat: 48.725	Long: 8.35	Name: Weisenbach	Count:123
1159	Lat: 48.725	Long: 13.4	Name: Tittling	Count:1907
1160	Lat: 52.5233	Long: 13.4138	Name: Berlin	Count:8399
1161	Lat: 48.8238	Long: 9.272	Name: Fellbach	Count:13506
1162	Lat: 53.6511	Long: 10.2674	Name: Grosshansdorf	Count:3968
1163	Lat: 54.0893	Long: 9.9779	Name: Neumünster	Count:7876
1164	Lat: 49.5198	Long: 8.0614	Name: Wattenheim	Count:789
1165	Lat: 53.1407	Long: 8.2171	Name: Oldenburg	Count:6512
1166	Lat: 50.4889	Long: 9.3358	Name: Grebenhain	Count:5876
1167	Lat: 50.4889	Long: 8.4806	Name: Schoeffengrund	Count:3292
1168	Lat: 53.6413	Long: 9.8647	Name: Rellingen	Count:1312
1169	Lat: 50.5667	Long: 6.2167	Name: Mutzenich	Count:112
1170	Lat: 50.5667	Long: 7.3833	Name: Heeg	Count:10
1171	Lat: 50.5667	Long: 7.95	Name: Gershasen	Count:492
1172	Lat: 50.5667	Long: 9.7167	Name: Petersberg	Count:748
1173	Lat: 50.5667	Long: 7.6833	Name: Marienhausen	Count:317
1174	Lat: 50.5667	Long: 12.3667	Name: Lengenfeld	Count:1005
1175	Lat: 50.5667	Long: 8.1667	Name: Mengerskirchen	Count:1271
1176	Lat: 50.5667	Long: 12.95	Name: Schlettau	Count:1384
1177	Lat: 50.5667	Long: 12.0667	Name: Plauen	Count:676
1178	Lat: 50.5667	Long: 7.85	Name: Wolferlingen	Count:605
1179	Lat: 50.5667	Long: 7.2833	Name: Linz am Rhein	Count:2317
1180	Lat: 50.5667	Long: 12.8	Name: Schwarzenberg	Count:6143
1181	Lat: 50.5667	Long: 7.5167	Name: Willroth	Count:1199
1182	Lat: 50.5667	Long: 10	Name: Hilders	Count:1640
1183	Lat: 50.5667	Long: 8.75	Name: Annerod	Count:1415
1184	Lat: 50.5667	Long: 7.75	Name: Ruckeroth	Count:584
1185	Lat: 50.5667	Long: 10.25	Name: Helmershausen	Count:143
1186	Lat: 50.5667	Long: 13	Name: Scheibe	Count:4245
1187	Lat: 50.5667	Long: 12.65	Name: Zschorlau	Count:1302
1188	Lat: 50.5667	Long: 12.7333	Name: Lauter	Count:635
1189	Lat: 48.3001	Long: 11.9082	Name: Erding	Count:16860
1190	Lat: 51.5221	Long: 7.0576	Name: Gelsenkirchen	Count:7158
1191	Lat: 51.4553	Long: 7.7764	Name: Menden	Count:5435
1192	Lat: 48.5656	Long: 12.6315	Name: Reisbach	Count:2943
1193	Lat: 51.9411	Long: 13.4448	Name: Dahme	Count:687
1194	Lat: 49.7333	Long: 6.8	Name: Thomm	Count:338
1195	Lat: 49.7333	Long: 8.7758	Name: Neunkirchen	Count:789
1196	Lat: 49.7333	Long: 12	Name: Schwarzenbach	Count:184
1197	Lat: 49.7333	Long: 10.1667	Name: Kitzingen	Count:9547
1198	Lat: 49.7333	Long: 6.75	Name: Morscheid	Count:328
1199	Lat: 49.7333	Long: 7.2333	Name: Siesbach	Count:1681
1200	Lat: 49.7333	Long: 11.15	Name: Kirchehrenbach	Count:471
1201	Lat: 49.7333	Long: 6.85	Name: Lorscheid	Count:553
1202	Lat: 49.7333	Long: 12.2167	Name: Stornstein	Count:758
1203	Lat: 49.7333	Long: 7.25	Name: Hettenrodt	Count:933
1204	Lat: 49.7333	Long: 7.7333	Name: Obermoschel	Count:748
1205	Lat: 49.7333	Long: 10.5822	Name: Burghaslach	Count:676
1206	Lat: 49.7333	Long: 10	Name: Eibelstadt	Count:1681
1207	Lat: 49.7333	Long: 7.6167	Name: Lauschied	Count:112
1208	Lat: 49.7333	Long: 7.4667	Name: Schmidthachenbach	Count:399
1209	Lat: 49.7333	Long: 12.0667	Name: Parkstein	Count:1446
1210	Lat: 50.884	Long: 9.7024	Name: Bad Hersfeld	Count:6768
1211	Lat: 52.9333	Long: 8.9667	Name: Thedinghausen	Count:2820
1212	Lat: 52.9333	Long: 12.6667	Name: Walsleben	Count:605
1213	Lat: 52.9333	Long: 8.3833	Name: Dotlingen	Count:1179
1214	Lat: 52.9333	Long: 10.65	Name: Lehmke	Count:502
1215	Lat: 52.9333	Long: 10.7667	Name: Suhlendorf	Count:1528
1216	Lat: 52.9333	Long: 11.7	Name: Kruden	Count:133
1217	Lat: 52.9333	Long: 7.65	Name: Lorup	Count:1999
1218	Lat: 52.9333	Long: 10.45	Name: Boddenstedt	Count:328
1219	Lat: 52.9333	Long: 7.2833	Name: Walchum	Count:461
1220	Lat: 52.9333	Long: 12.8	Name: Neuruppin	Count:2020
1221	Lat: 52.9333	Long: 12.2333	Name: Kyritz	Count:1015
1222	Lat: 51.5713	Long: 6.9827	Name: Gladbeck	Count:7814
1223	Lat: 51.0917	Long: 13.075	Name: Dobeln	Count:5373
1224	Lat: 48.7361	Long: 9.2977	Name: Esslingen am Neckar	Count:4553
1225	Lat: 49.0746	Long: 9.0682	Name: Brackenheim	Count:7599
1226	Lat: 54.85	Long: 8.3	Name: Rantum	Count:184
1227	Lat: 51.5794	Long: 7.2158	Name: Recklinghausen	Count:9783
1228	Lat: 51.8413	Long: 6.6242	Name: Bocholt	Count:14132
1229	Lat: 52.4853	Long: 13.355	Name: Berlin	Count:5322
1230	Lat: 49.3428	Long: 8.6592	Name: Sandhausen	Count:399
1231	Lat: 48.0867	Long: 10.8595	Name: Kaufering	Count:3692
1232	Lat: 48.551	Long: 10.3688	Name: Gundelfingen	Count:3415
1233	Lat: 49.0123	Long: 13.2256	Name: Zwiesel	Count:2338
1234	Lat: 49.0861	Long: 9.8806	Name: Vellberg	Count:1610
1235	Lat: 52.7886	Long: 7.1841	Name: Haren	Count:6963
1236	Lat: 50.7188	Long: 12.4601	Name: Zwickau	Count:4604
1237	Lat: 50.001	Long: 8.2688	Name: Mainz	Count:19721
1238	Lat: 48.1102	Long: 11.5899	Name: Munich	Count:25433
1239	Lat: 52.049	Long: 8.372	Name: Halle	Count:12101
1240	Lat: 47.6163	Long: 7.6648	Name: Lörrach	Count:36007
1241	Lat: 54.3187	Long: 10.1704	Name: Kiel	Count:9578
1242	Lat: 49.0833	Long: 11.85	Name: Theilenhofen	Count:533
1243	Lat: 49.0833	Long: 11.05	Name: Ettenstatt	Count:174
1244	Lat: 49.0833	Long: 10.5333	Name: Ehingen	Count:205
1245	Lat: 49.0833	Long: 12.4833	Name: Arrach	Count:625
1246	Lat: 49.0833	Long: 7.7167	Name: Fischbach	Count:635
1247	Lat: 51.1333	Long: 14.4	Name: Obergurig	Count:215
1248	Lat: 51.1333	Long: 12.8167	Name: Colditz	Count:1353
1249	Lat: 51.1333	Long: 11.8833	Name: Naumburg	Count:4481
1250	Lat: 51.1333	Long: 14.25	Name: Demitz-Thumitz	Count:266
1251	Lat: 51.1333	Long: 10.4167	Name: Kammerforst	Count:276
1252	Lat: 51.1333	Long: 7.5833	Name: Kierspe	Count:235
1253	Lat: 51.1333	Long: 11	Name: Werningshausen	Count:430
1254	Lat: 51.1333	Long: 9.55	Name: Melsungen	Count:5097
1255	Lat: 51.1333	Long: 11.5167	Name: Eckartsberga	Count:235
1256	Lat: 51.1333	Long: 13.1833	Name: Mochau	Count:20
1257	Lat: 51.65	Long: 12.45	Name: Plodda	Count:112
1258	Lat: 51.65	Long: 10.1333	Name: Lindau	Count:184
1259	Lat: 51.65	Long: 14.2167	Name: Drebkau	Count:328
1260	Lat: 51.65	Long: 11.9333	Name: Grobzig	Count:225
1261	Lat: 51.65	Long: 10.4667	Name: Bad Lauterberg im Harz	Count:1528
1262	Lat: 51.65	Long: 8.1667	Name: Herzfeld	Count:338
1263	Lat: 51.65	Long: 11.35	Name: Stangerode	Count:225
1264	Lat: 51.65	Long: 12.1	Name: Radegast	Count:174
1265	Lat: 51.65	Long: 6.7833	Name: Hunxe	Count:6768
1266	Lat: 51.65	Long: 14.4333	Name: Spremberg	Count:1784
1267	Lat: 51.65	Long: 10.3333	Name: Herzberg am Harz	Count:9547
1268	Lat: 51.65	Long: 12.2333	Name: Wolfen	Count:2522
1269	Lat: 51.65	Long: 10.9833	Name: Gernrode	Count:1210
1270	Lat: 51.65	Long: 6.6333	Name: Wesel	Count:410
1271	Lat: 51.65	Long: 7.65	Name: Runthe	Count:461
1272	Lat: 51.65	Long: 14.0333	Name: Altdobern	Count:697
1273	Lat: 51.65	Long: 9.8333	Name: Hardegsen	Count:1292
1274	Lat: 51.65	Long: 7.0833	Name: Marl	Count:1056
1275	Lat: 51.65	Long: 12.3	Name: Greppin	Count:194
1276	Lat: 51.65	Long: 6.1833	Name: Host	Count:109222
1277	Lat: 51.95	Long: 13.9	Name: Luebben	Count:5332
1278	Lat: 51.95	Long: 11.55	Name: Borne	Count:215
1279	Lat: 51.95	Long: 9.9167	Name: Everode	Count:338
1280	Lat: 51.95	Long: 14.7167	Name: Guben	Count:3476
1281	Lat: 51.95	Long: 9.8	Name: Delligsen	Count:3497
1282	Lat: 51.95	Long: 9.25	Name: Lugde	Count:4194
1283	Lat: 51.95	Long: 7.0167	Name: Gescher	Count:553
1284	Lat: 51.95	Long: 9.4667	Name: Bodenwerder	Count:102
1285	Lat: 51.95	Long: 11.1667	Name: Nienhagen	Count:2297
1286	Lat: 51.95	Long: 9.6167	Name: Luerdissen	Count:317
1287	Lat: 51.95	Long: 11.6667	Name: Biere	Count:1333
1288	Lat: 51.95	Long: 7.9833	Name: Warendorf	Count:1876
1289	Lat: 51.95	Long: 11.4333	Name: Egeln	Count:502
1290	Lat: 48.3095	Long: 11.744	Name: Hallbergmoos	Count:3599
1291	Lat: 49.0953	Long: 8.3906	Name: Eggenstein-Leopoldshafen	Count:3712
1292	Lat: 49.2996	Long: 8.9139	Name: Waibstadt	Count:4266
1293	Lat: 50.6813	Long: 7.1546	Name: Bonn	Count:3189
1294	Lat: 50.1223	Long: 8.6809	Name: Frankfurt am Main	Count:15793
1295	Lat: 47.8595	Long: 12.1528	Name: Stephanskirchen	Count:1128
1296	Lat: 50.711	Long: 7.0489	Name: Bonn	Count:10419
1297	Lat: 49.6467	Long: 8.1694	Name: Molsheim	Count:266
1298	Lat: 48.1667	Long: 11.8167	Name: Poing	Count:1456
1299	Lat: 48.1667	Long: 12.8333	Name: Burghausen	Count:564
1300	Lat: 48.1667	Long: 12.6167	Name: Unterneukirchen	Count:902
1301	Lat: 48.1667	Long: 8.5833	Name: Zimmern ob Rottweil	Count:266
1302	Lat: 48.1667	Long: 7.8333	Name: Teningen	Count:584
1303	Lat: 48.1667	Long: 7.8	Name: Malterdingen	Count:471
1304	Lat: 48.1667	Long: 12.7333	Name: Burgkirchen an der Alz	Count:3456
1305	Lat: 48.1667	Long: 9.1	Name: Strassberg	Count:112
1306	Lat: 48.1667	Long: 8.6167	Name: Rottweil	Count:328
1307	Lat: 48.1667	Long: 7.65	Name: Wyhl	Count:707
1308	Lat: 48.1667	Long: 11.9167	Name: Forstinning	Count:430
1309	Lat: 48.1667	Long: 10.8333	Name: Klosterlechfeld	Count:317
1310	Lat: 48.1667	Long: 9.4167	Name: Pflummern	Count:205
1311	Lat: 48.1667	Long: 11.5833	Name: Schwaig	Count:779
1312	Lat: 48.1667	Long: 12.0333	Name: Mittbach	Count:256
1313	Lat: 48.1667	Long: 9.5167	Name: Unlingen	Count:758
1314	Lat: 48.1667	Long: 11.7667	Name: Heimstetten	Count:656
1315	Lat: 48.1667	Long: 11.7167	Name: Aschheim	Count:3415
1316	Lat: 48.1667	Long: 9.6667	Name: Oberstadion	Count:594
1317	Lat: 48.1667	Long: 10.9	Name: Scheuring	Count:728
1318	Lat: 48.1667	Long: 10.8	Name: Untermeitingen	Count:2184
1319	Lat: 48.1667	Long: 8.0333	Name: Katzenmoos	Count:2440
1320	Lat: 48.1667	Long: 9.8667	Name: Baltringen	Count:23239
1321	Lat: 48.1667	Long: 12.3833	Name: Jettenbach	Count:553
1322	Lat: 51.2562	Long: 6.7808	Name: Dusseldorf	Count:9199
1323	Lat: 48.2262	Long: 8.657	Name: Dietingen	Count:625
1324	Lat: 48.2262	Long: 12.6586	Name: Altoetting	Count:1343
1325	Lat: 53	Long: 7.95	Name: Bosel	Count:4707
1326	Lat: 53	Long: 11.75	Name: Wittenberge	Count:358
1327	Lat: 53	Long: 14.1333	Name: Schoneberg	Count:184
1328	Lat: 53	Long: 11.8167	Name: Wittenberge	Count:738
1329	Lat: 53	Long: 10.45	Name: Schwienau	Count:769
1330	Lat: 53	Long: 7.3	Name: Dorpen	Count:4009
1331	Lat: 49.6775	Long: 12.1567	Name: Weiden	Count:1733
1332	Lat: 49.7739	Long: 8.8844	Name: Brensbach	Count:225
1333	Lat: 49.0007	Long: 9.2973	Name: Grossbottwar	Count:6040
1334	Lat: 49.0007	Long: 12.0734	Name: Regensburg	Count:8399
1335	Lat: 49.1181	Long: 8.2781	Name: Rheinzabern	Count:707
1336	Lat: 49.1181	Long: 8.0078	Name: Pleisweiler-Oberhofen	Count:10
1337	Lat: 52.2258	Long: 10.5271	Name: Braunschweig	Count:10717
1338	Lat: 49.9211	Long: 9.0814	Name: Grossostheim	Count:779
1339	Lat: 48.4736	Long: 8.1573	Name: Oppenau	Count:3589
1340	Lat: 50.827	Long: 12.9043	Name: Chemnitz	Count:4235
1341	Lat: 49.919	Long: 8.8777	Name: Munster	Count:6563
1342	Lat: 50.9007	Long: 12.7669	Name: Muhlau	Count:717
1343	Lat: 51.2214	Long: 6.8116	Name: Dusseldorf	Count:9486
1344	Lat: 51.8221	Long: 12.1917	Name: Dessau	Count:5302
1345	Lat: 53.6462	Long: 7.2946	Name: Hage	Count:4717
1346	Lat: 52.156	Long: 11.5789	Name: Magdeburg	Count:2830
1347	Lat: 50.9968	Long: 13.6499	Name: Freital	Count:9353
1348	Lat: 50.9968	Long: 11.0079	Name: Erfurt	Count:4932
1349	Lat: 54.3334	Long: 10.1176	Name: Kiel	Count:10276
1350	Lat: 50.973	Long: 10.9787	Name: Erfurt	Count:5712
1351	Lat: 49.6867	Long: 8.6284	Name: Bensheim	Count:14091
1352	Lat: 51.1834	Long: 7.5027	Name: Halver	Count:8307
1353	Lat: 52.0118	Long: 8.5202	Name: Bielefeld	Count:4009
1354	Lat: 51.2592	Long: 6.5156	Name: Willich	Count:39145
1355	Lat: 49.0383	Long: 11.8522	Name: Hemau	Count:1517
1356	Lat: 53.6057	Long: 10.0691	Name: Hamburg	Count:7835
1357	Lat: 50.9815	Long: 12.4361	Name: Altenburg	Count:12358
1358	Lat: 52.7481	Long: 9.1835	Name: Schweringen	Count:379
1359	Lat: 49.4694	Long: 11.2011	Name: Schwaig	Count:9568
1360	Lat: 51.6658	Long: 7.6456	Name: Werne	Count:10604
1361	Lat: 49.6669	Long: 11.4644	Name: Plech	Count:1733
1362	Lat: 49.8336	Long: 8.7519	Name: Ober-Ramstadt	Count:9486
1363	Lat: 48.1475	Long: 11.4635	Name: Munich	Count:18029
1364	Lat: 49.3806	Long: 8.3039	Name: Bohl-Iggelheim	Count:2030
1365	Lat: 49.464	Long: 11.1491	Name: Nuremberg	Count:2717
1366	Lat: 53.1001	Long: 8.9029	Name: Bremen	Count:3045
1367	Lat: 51.5817	Long: 8.1708	Name: Bad Sassendorf	Count:5876
1368	Lat: 52.4043	Long: 12.568	Name: Brandenburg	Count:3425
1369	Lat: 48.1776	Long: 11.517	Name: Munich	Count:20480
1370	Lat: 47.45	Long: 10.2667	Name: Fischen	Count:697
1371	Lat: 47.45	Long: 10.9833	Name: Eibsee	Count:41
1372	Lat: 47.45	Long: 10.25	Name: Niederdorf	Count:430
1373	Lat: 50.349	Long: 8.5322	Name: Usingen	Count:1702
1374	Lat: 49.1503	Long: 9.2883	Name: Weinsberg	Count:358
1375	Lat: 50.7333	Long: 10.3667	Name: Fambach	Count:133
1376	Lat: 50.7333	Long: 11.0833	Name: Stadtilm	Count:1897
1377	Lat: 50.7333	Long: 13.55	Name: Rechenberg-Bienenmuhle	Count:205
1378	Lat: 50.7333	Long: 11.85	Name: Triptis	Count:512
1379	Lat: 50.7333	Long: 11.4	Name: Kirchhasel	Count:779
1380	Lat: 50.7333	Long: 7.0167	Name: Alfter	Count:6809
1381	Lat: 50.7333	Long: 11.9167	Name: Auma	Count:1169
1382	Lat: 50.7333	Long: 9	Name: Homberg	Count:1025
1383	Lat: 50.7333	Long: 10.8333	Name: Geraberg	Count:615
1384	Lat: 50.7333	Long: 8.2833	Name: Dillenburg	Count:7414
1385	Lat: 50.7333	Long: 12.5	Name: Zwickau	Count:18542
1386	Lat: 50.7333	Long: 12.9167	Name: Burkhardtsdorf	Count:1938
1387	Lat: 50.7333	Long: 7.4	Name: Ravenstein	Count:666
1388	Lat: 50.7333	Long: 7.75	Name: Kolbach	Count:338
1389	Lat: 50.7333	Long: 11.75	Name: Neustadt (Orla)	Count:3384
1390	Lat: 50.7333	Long: 12.7833	Name: Niederdorf	Count:779
1391	Lat: 50.7333	Long: 7.9667	Name: Daaden	Count:1722
1392	Lat: 50.7333	Long: 11.45	Name: Weissenburg	Count:4471
1393	Lat: 50.7333	Long: 8.6333	Name: Lohra	Count:2820
1394	Lat: 50.7333	Long: 7.1	Name: Bonn	Count:68025
1395	Lat: 50.7333	Long: 12.3833	Name: Werdau	Count:1281
1396	Lat: 50.7333	Long: 6.6	Name: Vettweiss	Count:2225
1397	Lat: 50.7333	Long: 13.1	Name: Krumhermersdorf	Count:317
1398	Lat: 51.9333	Long: 11.3	Name: Kroppenstedt	Count:1117
1399	Lat: 51.9333	Long: 7.5333	Name: Roxel	Count:61
1400	Lat: 51.9333	Long: 13.3333	Name: Luckenwalde	Count:194
1401	Lat: 51.9333	Long: 10.3833	Name: Astfeld	Count:246
1402	Lat: 51.9333	Long: 7.35	Name: Nottuln	Count:1240
1403	Lat: 51.9333	Long: 6.8667	Name: Sudlohn	Count:6666
1404	Lat: 51.9333	Long: 11.2167	Name: Groeningen	Count:1271
1405	Lat: 51.9333	Long: 9.9	Name: Freden	Count:3435
1406	Lat: 51.9333	Long: 8.8833	Name: Detmold	Count:2030
1407	Lat: 51.9333	Long: 13.7	Name: Golssen	Count:594
1408	Lat: 51.9333	Long: 7.85	Name: Everswinkel	Count:6020
1409	Lat: 51.9333	Long: 8.1333	Name: Beelen	Count:543
1410	Lat: 51.9333	Long: 14.1	Name: Neu Zauche	Count:687
1411	Lat: 51.9333	Long: 7.15	Name: Coesfeld	Count:840
1412	Lat: 51.0991	Long: 6.5095	Name: Juchen	Count:9640
1413	Lat: 48.1976	Long: 11.5181	Name: Munich	Count:13660
1414	Lat: 52.5194	Long: 13.2723	Name: Charlottenburg Bezirk	Count:4112
1415	Lat: 51.1649	Long: 13.4859	Name: Meissen	Count:5015
1416	Lat: 51.2157	Long: 6.7767	Name: Dusseldorf	Count:4286
1417	Lat: 49.9521	Long: 8.6385	Name: Erzhausen	Count:4615
1418	Lat: 47.8267	Long: 10.2818	Name: Dietmannsried	Count:1651
1419	Lat: 53.85	Long: 10.5	Name: Heidekamp	Count:3394
1420	Lat: 53.85	Long: 12.7	Name: Lelkendorf	Count:153
1421	Lat: 53.85	Long: 9.7167	Name: Brande-Hornerkirchen	Count:348
1422	Lat: 53.85	Long: 13.7833	Name: Ribnitz	Count:174
1423	Lat: 53.85	Long: 11.4667	Name: Mecklenburg	Count:143
1424	Lat: 53.85	Long: 10.1833	Name: Seth	Count:317
1425	Lat: 53.85	Long: 10.6333	Name: Lübeck	Count:194
1426	Lat: 53.85	Long: 12.9	Name: Verchen	Count:348
1427	Lat: 53.85	Long: 10.9333	Name: Schonberg	Count:112
1428	Lat: 53.85	Long: 10.25	Name: Leezen	Count:1322
1429	Lat: 53.85	Long: 11.6667	Name: Nakensdorf	Count:461
1430	Lat: 51.8296	Long: 8.6701	Name: Hovelhof	Count:5538
1431	Lat: 48.3673	Long: 10.8921	Name: Augsburg	Count:10030
1432	Lat: 50.0086	Long: 8.2821	Name: Kastel	Count:123
1433	Lat: 49.443	Long: 11.0948	Name: Nuremberg	Count:2461
1434	Lat: 47.7814	Long: 9.6118	Name: Ravensburg	Count:28018
1435	Lat: 50.6921	Long: 8.3957	Name: Mittenaar	Count:1394
1436	Lat: 54.0297	Long: 14.0251	Name: Loddin	Count:512
1437	Lat: 51.3272	Long: 7.8641	Name: Balve	Count:1087
1438	Lat: 51.3272	Long: 9.1709	Name: Wolfhagen	Count:1907
1439	Lat: 49.4803	Long: 8.8281	Name: Hirschhorn	Count:369
1440	Lat: 49.5458	Long: 8.3078	Name: Hessheim	Count:564
1441	Lat: 53.8555	Long: 8.6773	Name: Cuxhaven	Count:3486
1442	Lat: 49.5684	Long: 8.1605	Name: Grunstadt	Count:3466
1443	Lat: 49.3894	Long: 12.1397	Name: Schwarzenfeld	Count:615
1444	Lat: 52.0833	Long: 10.15	Name: Holle	Count:5302
1445	Lat: 52.0833	Long: 10.2333	Name: Baddeckenstedt	Count:1005
1446	Lat: 52.0833	Long: 10.4833	Name: Flothe	Count:1261
1447	Lat: 52.0833	Long: 10.3333	Name: Salzgitter	Count:22090
1448	Lat: 52.0833	Long: 8.7667	Name: Bad Salzuflen	Count:2481
1449	Lat: 52.0833	Long: 9.7833	Name: Gronau	Count:3240
1450	Lat: 52.0833	Long: 10.2833	Name: Elbe	Count:994
1451	Lat: 52.0833	Long: 10.1667	Name: Steinlah	Count:225
1452	Lat: 52.0833	Long: 7.3167	Name: Horstmar	Count:2040
1453	Lat: 52.0833	Long: 7.4833	Name: Nordwalde	Count:2317
1454	Lat: 52.0833	Long: 13.1667	Name: Luckenwalde	Count:205
1455	Lat: 52.8971	Long: 10.1643	Name: Fassberg	Count:1066
1456	Lat: 49.5462	Long: 8.4488	Name: Mannheim	Count:8450
1457	Lat: 48.1333	Long: 12.6	Name: Garching an der Alz	Count:861
1458	Lat: 48.1333	Long: 7.8167	Name: Teningen	Count:6286
1459	Lat: 48.1333	Long: 9.8833	Name: Maselheim	Count:235
1460	Lat: 48.1333	Long: 12.1833	Name: Haag in Oberbayern	Count:697
1461	Lat: 48.1333	Long: 7.6167	Name: Sasbach	Count:953
1462	Lat: 48.1333	Long: 10.4833	Name: Salgen	Count:205
1463	Lat: 48.1333	Long: 11.3667	Name: Germering	Count:5138
1464	Lat: 48.1333	Long: 10.5833	Name: Markt Wald	Count:543
1465	Lat: 48.1333	Long: 9.8	Name: Warthausen	Count:1087
1466	Lat: 48.1333	Long: 8.85	Name: Wehingen	Count:1097
1467	Lat: 48.1333	Long: 12.6833	Name: Halsbach	Count:553
1468	Lat: 48.1333	Long: 8.2333	Name: Triberg im Schwarzwald	Count:1835
1469	Lat: 48.1333	Long: 8.4167	Name: Konigsfeld im Schwarzwald	Count:2645
1470	Lat: 48.1333	Long: 7.85	Name: Wasser	Count:738
1471	Lat: 48.1333	Long: 9.7	Name: Attenweiler	Count:164
1472	Lat: 48.1333	Long: 8.6833	Name: Neufra	Count:82
1473	Lat: 48.1333	Long: 11.0333	Name: Geltendorf	Count:1733
1474	Lat: 48.1333	Long: 11.2	Name: Schongeising	Count:656
1475	Lat: 48.1333	Long: 8.8667	Name: Obernheim	Count:235
1476	Lat: 48.1333	Long: 8.75	Name: Gosheim	Count:1333
1477	Lat: 48.1333	Long: 7.7	Name: Endingen	Count:1333
1478	Lat: 48.1333	Long: 10.4	Name: Breitenbrunn	Count:2512
1479	Lat: 48.1333	Long: 8.3333	Name: Sankt Georgen im Schwarzwald	Count:1589
1480	Lat: 48.1333	Long: 8.7167	Name: Frittlingen	Count:1579
1481	Lat: 48.1333	Long: 8.5333	Name: Niedereschach	Count:4830
1482	Lat: 51.4658	Long: 7.1572	Name: Bochum	Count:67758
1483	Lat: 52.65	Long: 13.55	Name: Berlin	Count:4502
1484	Lat: 52.65	Long: 10.4833	Name: Gross Oesingen	Count:287
1485	Lat: 52.65	Long: 12.45	Name: Ferchesar	Count:174
1486	Lat: 52.65	Long: 13.5	Name: Berlin	Count:348
1487	Lat: 52.65	Long: 10.25	Name: Beedenbostel	Count:174
1488	Lat: 52.65	Long: 8.1167	Name: Dinklage	Count:5896
1489	Lat: 53.5781	Long: 9.8281	Name: Hamburg	Count:9250
1490	Lat: 49.2803	Long: 11.4628	Name: Neumarkt in der Oberpfalz	Count:625
1491	Lat: 49.4461	Long: 8.6083	Name: Edingen-Neckarhausen	Count:379
1492	Lat: 48.0027	Long: 9.8244	Name: Eberhardzell	Count:605
1493	Lat: 49.8023	Long: 9.1605	Name: Erlenbach am Main	Count:225
1494	Lat: 49.995	Long: 8.237	Name: Mainz	Count:12152
1495	Lat: 49.4892	Long: 8.2247	Name: Erpolzheim	Count:1435
1496	Lat: 48.1512	Long: 11.6103	Name: Munich	Count:3015
1497	Lat: 52.474	Long: 13.3386	Name: Berlin	Count:1005
1498	Lat: 50.988	Long: 7.845	Name: Wenden	Count:10922
1499	Lat: 51.2154	Long: 6.663	Name: Neuss	Count:14501
1500	Lat: 52.2835	Long: 10.5822	Name: Braunschweig	Count:9342
1501	Lat: 49.6494	Long: 8.0967	Name: Albisheim	Count:1169
1502	Lat: 50.0635	Long: 10.9571	Name: Ebensfeld	Count:1087
1503	Lat: 50	Long: 9.2	Name: Hosbach	Count:1240
1504	Lat: 50	Long: 9.15	Name: Glattbach	Count:1138
1505	Lat: 50	Long: 8	Name: Oestrich-Winkel	Count:2430
1506	Lat: 50	Long: 9.4167	Name: Neuhutten	Count:276
1507	Lat: 50	Long: 6.5	Name: Rittersdorf	Count:1148
1508	Lat: 50	Long: 6.9333	Name: Wittlich	Count:451
1509	Lat: 50	Long: 6.6167	Name: Badem	Count:594
1510	Lat: 50	Long: 8.7	Name: Dreieich	Count:4071
1511	Lat: 50	Long: 8.5833	Name: Morfelden-Walldorf	Count:4256
1512	Lat: 50	Long: 8.1261	Name: Heidesheim	Count:4502
1513	Lat: 50	Long: 8.2711	Name: Mainz	Count:72250
1514	Lat: 50	Long: 10.2	Name: Grafenrheinfeld	Count:1035
1515	Lat: 50	Long: 7.6	Name: Rheinbollen	Count:2143
1516	Lat: 49.1458	Long: 8.3144	Name: Kuhardt	Count:2287
1517	Lat: 51.4686	Long: 11.2688	Name: Sangerhausen	Count:7445
1518	Lat: 51.3329	Long: 12.4047	Name: Leipzig	Count:5722
1519	Lat: 53.2329	Long: 10.4078	Name: Lüneburg	Count:5414
1520	Lat: 51.1958	Long: 6.4387	Name: Mönchengladbach	Count:19916
1521	Lat: 52.3582	Long: 9.2509	Name: Ludersfeld	Count:266
1522	Lat: 50.2247	Long: 8.9905	Name: Hammersbach	Count:2020
1523	Lat: 47.9166	Long: 9.7495	Name: Bad Waldsee	Count:6420
1524	Lat: 53.8685	Long: 10.6854	Name: Lübeck	Count:2266
1525	Lat: 51.2117	Long: 6.807	Name: Dusseldorf	Count:33402
1526	Lat: 50.7438	Long: 12.6453	Name: Lichtenstein	Count:3702
1527	Lat: 51.2558	Long: 6.9705	Name: Mettmann	Count:15475
1528	Lat: 52.6793	Long: 9.9087	Name: Winsen	Count:4050
1529	Lat: 47.9809	Long: 7.8327	Name: Freiburg	Count:7025
1530	Lat: 51.2352	Long: 6.8191	Name: Dusseldorf	Count:5855
1531	Lat: 47.4333	Long: 11.25	Name: Mittenwald	Count:194
1532	Lat: 48.8641	Long: 10.1044	Name: Aalen	Count:3476
1533	Lat: 51.3334	Long: 9.858	Name: Witzenhausen	Count:3117
1534	Lat: 49.4772	Long: 8.4818	Name: Mannheim	Count:26808
1535	Lat: 51.5566	Long: 7.0025	Name: Gladbeck	Count:14183
1536	Lat: 49.9644	Long: 9.2072	Name: Haibach	Count:1076
1537	Lat: 51.1407	Long: 7.3502	Name: Huckeswagen	Count:4635
1538	Lat: 50.4934	Long: 9.6961	Name: Eichenzell	Count:1384
1539	Lat: 49.3063	Long: 8.1425	Name: Maikammer	Count:851
1540	Lat: 49.3647	Long: 9.34	Name: Roigheim	Count:440
1541	Lat: 48.1291	Long: 11.4895	Name: Munich	Count:9178
1542	Lat: 49.3299	Long: 8.5571	Name: Hockenheim	Count:11445
1543	Lat: 49.4808	Long: 8.5619	Name: Ilvesheim	Count:2461
1544	Lat: 53.5498	Long: 10.1091	Name: Hamburg	Count:5743
1545	Lat: 51.427	Long: 7.1544	Name: Bochum	Count:10624
1546	Lat: 51.6812	Long: 6.963	Name: Dorsten	Count:8983
1547	Lat: 51.4467	Long: 7.0821	Name: Essen	Count:6061
1548	Lat: 49.8671	Long: 8.3497	Name: Nierstein	Count:5015
1549	Lat: 48.0463	Long: 9.3309	Name: Mengen	Count:3999
1550	Lat: 47.6116	Long: 10.6357	Name: Hopferau	Count:71
1551	Lat: 54.1167	Long: 11.7833	Name: Wittenbeck	Count:143
1552	Lat: 54.1167	Long: 13.6167	Name: Wusterhusen	Count:287
1553	Lat: 54.1167	Long: 13.6	Name: Wusterhusen	Count:2040
1554	Lat: 54.1167	Long: 11.9833	Name: Ostseebad Nienhagen	Count:358
1555	Lat: 54.1167	Long: 13.55	Name: Gahlkow	Count:266
1556	Lat: 54.1167	Long: 9.5667	Name: Osterstedt	Count:717
1557	Lat: 54.1167	Long: 12.8667	Name: Gremersdorf	Count:143
1558	Lat: 54.1167	Long: 12.9167	Name: Splietsdorf	Count:297
1559	Lat: 54.1167	Long: 12.2	Name: Bentwisch	Count:461
1560	Lat: 54.1167	Long: 13.8333	Name: Karlshagen	Count:82
1561	Lat: 48.5155	Long: 8.3495	Name: Baiersbronn	Count:3302
1562	Lat: 47.5737	Long: 10.6726	Name: Füssen	Count:3445
1563	Lat: 49.7711	Long: 11.0581	Name: Eggolsheim	Count:2092
1564	Lat: 50.55	Long: 8.9833	Name: Laubach	Count:2061
1565	Lat: 50.55	Long: 7.25	Name: Sinzig	Count:1825
1566	Lat: 50.55	Long: 12.7	Name: Bockau	Count:1087
1567	Lat: 50.55	Long: 7.5333	Name: Oberraden	Count:348
1568	Lat: 50.55	Long: 9.7167	Name: Kunzell	Count:2974
1569	Lat: 50.55	Long: 7.4167	Name: Waldbreitbach	Count:543
1570	Lat: 50.55	Long: 7.9	Name: Kaden	Count:471
1571	Lat: 50.55	Long: 7.3	Name: Leubsdorf	Count:2430
1572	Lat: 50.55	Long: 8.3667	Name: Leun	Count:1661
1573	Lat: 50.55	Long: 7.7167	Name: Marienrachdorf	Count:82
1574	Lat: 50.55	Long: 9.6667	Name: Fulda	Count:7045
1575	Lat: 50.55	Long: 6.55	Name: Kall	Count:307
1576	Lat: 50.55	Long: 6.9167	Name: Eichen	Count:276
1577	Lat: 50.55	Long: 8.3167	Name: Stockhausen	Count:30
1578	Lat: 50.55	Long: 7.5	Name: Oberhonnefeld-Gierend	Count:338
1579	Lat: 50.55	Long: 7.1833	Name: Green	Count:994
1580	Lat: 50.55	Long: 7.6667	Name: Dierdorf	Count:840
1581	Lat: 50.55	Long: 8.5	Name: Wetzlar	Count:21167
1582	Lat: 50.55	Long: 6.7667	Name: Bad Munstereifel	Count:687
1583	Lat: 50.55	Long: 7.9667	Name: Willmenrod	Count:256
1584	Lat: 50.55	Long: 7.1333	Name: Bad Neuenahr-Ahrweiler	Count:1579
1585	Lat: 50.55	Long: 7.0833	Name: Karweiler	Count:543
1586	Lat: 50.55	Long: 6.7634	Name: Bad Munstereifel	Count:3374
1587	Lat: 50.55	Long: 7.1	Name: Bad Neuenahr-Ahrweiler	Count:7937
1588	Lat: 50.55	Long: 11.45	Name: Leutenberg	Count:1405
1589	Lat: 50.55	Long: 10.7667	Name: Breitenbach	Count:430
1590	Lat: 50.55	Long: 10.4167	Name: Meiningen	Count:2215
1591	Lat: 48.85	Long: 10.3333	Name: Bopfingen	Count:123
1592	Lat: 48.85	Long: 12.6167	Name: Alterhofen	Count:164
1593	Lat: 48.85	Long: 13.4833	Name: Hohenau	Count:584
1594	Lat: 48.85	Long: 8.2	Name: Rastatt	Count:143
1595	Lat: 48.85	Long: 9.8	Name: Durlangen	Count:2071
1596	Lat: 48.85	Long: 12.0167	Name: Dietenhofen	Count:912
1597	Lat: 48.85	Long: 9.0667	Name: Mauer	Count:225
1598	Lat: 48.85	Long: 8.8333	Name: Wimsheim	Count:133
1599	Lat: 48.85	Long: 12.75	Name: Irlbach	Count:143
1600	Lat: 48.85	Long: 9.7167	Name: Alfdorf	Count:4317
1601	Lat: 48.85	Long: 11.65	Name: Mindelstetten	Count:389
1602	Lat: 48.85	Long: 8.5333	Name: Feldrennach	Count:51
1603	Lat: 48.85	Long: 12.4333	Name: Perkam	Count:369
1604	Lat: 48.85	Long: 13.4	Name: Grafenau	Count:1394
1605	Lat: 48.85	Long: 10.5	Name: Nördlingen	Count:1517
1606	Lat: 48.85	Long: 11.3167	Name: Hitzhofen	Count:2112
1607	Lat: 53.5701	Long: 9.8654	Name: Hamburg	Count:8912
1608	Lat: 50.9148	Long: 6.994	Name: Cologne	Count:7086
1609	Lat: 48.515	Long: 9.8522	Name: Dornstadt	Count:6748
1610	Lat: 48.7827	Long: 9.172	Name: Stuttgart	Count:4943
1611	Lat: 49.489	Long: 8.3791	Name: Ludwigshafen am Rhein	Count:3476
1612	Lat: 52.0333	Long: 10.5	Name: Schladen	Count:2953
1613	Lat: 52.0333	Long: 9.2667	Name: Aerzen	Count:6789
1614	Lat: 52.0333	Long: 6.8333	Name: Vreden	Count:553
1615	Lat: 52.0333	Long: 9.2	Name: Bruch	Count:1087
1616	Lat: 52.0333	Long: 11.5333	Name: Langenweddingen	Count:369
1617	Lat: 52.0333	Long: 10.9	Name: Dedeleben	Count:225
1618	Lat: 52.0333	Long: 13.0833	Name: Juterbog	Count:225
1619	Lat: 52.0333	Long: 9.6667	Name: Weenzen	Count:205
1620	Lat: 52.0333	Long: 13.9	Name: Schlepzig	Count:1138
1621	Lat: 52.0333	Long: 11.25	Name: Oschersleben	Count:1035
1622	Lat: 52.0333	Long: 8.9	Name: Lemgo	Count:1538
1623	Lat: 52.0333	Long: 7.1	Name: Legden	Count:2307
1624	Lat: 52.0333	Long: 8.5333	Name: Bielefeld	Count:176858
1625	Lat: 52.0333	Long: 9	Name: Dorentrup	Count:4368
1626	Lat: 48.7515	Long: 11.4588	Name: Ingolstadt	Count:4430
1627	Lat: 51.217	Long: 6.8254	Name: Dusseldorf	Count:7835
1628	Lat: 47.9082	Long: 9.8946	Name: Bad Wurzach	Count:7948
1629	Lat: 51.1532	Long: 7.0595	Name: Solingen	Count:13773
1630	Lat: 51.0784	Long: 6.3089	Name: Erkelenz	Count:19865
1631	Lat: 53.1333	Long: 10.3167	Name: Betzendorf	Count:225
1632	Lat: 53.1333	Long: 7.6167	Name: Ostrhauderfehn	Count:8399
1633	Lat: 53.1333	Long: 10.4833	Name: Bienenbuttel	Count:4409
1634	Lat: 53.1333	Long: 9.3167	Name: Botersen	Count:461
1635	Lat: 53.1333	Long: 12.7667	Name: Zechlin Dorf	Count:1415
1636	Lat: 53.1333	Long: 10.6	Name: Altenmedingen	Count:338
1637	Lat: 53.1333	Long: 7.9833	Name: Edewecht	Count:5015
1638	Lat: 53.1333	Long: 11.25	Name: Domitz	Count:358
1639	Lat: 53.1333	Long: 7.5667	Name: Westrhauderfehn	Count:451
1640	Lat: 53.1333	Long: 8.9167	Name: Lilienthal	Count:194
1641	Lat: 53.1333	Long: 10.3667	Name: Melbeck	Count:779
1642	Lat: 50.9626	Long: 6.8924	Name: Cologne	Count:7794
1643	Lat: 48.1159	Long: 11.5795	Name: Munich	Count:28859
1644	Lat: 48.7993	Long: 9.5946	Name: Pluderhausen	Count:1620
1645	Lat: 53.0635	Long: 8.5557	Name: Ganderkesee	Count:7189
1646	Lat: 51.422	Long: 6.8566	Name: Mülheim	Count:5455
1647	Lat: 51.2167	Long: 11.9833	Name: Weissenfels	Count:4204
1648	Lat: 51.2167	Long: 10.0667	Name: Kassel	Count:523
1649	Lat: 51.2167	Long: 9.1	Name: Netze	Count:82
1650	Lat: 51.2167	Long: 6.1667	Name: Beek	Count:9804
1651	Lat: 51.2167	Long: 8.3667	Name: Schmallenberg	Count:256
1652	Lat: 51.2167	Long: 7.8833	Name: Plettenberg	Count:133
1653	Lat: 51.2167	Long: 11.3	Name: Grossmonra	Count:256
1654	Lat: 51.2167	Long: 7.6167	Name: Grunewald	Count:24244
1655	Lat: 51.2167	Long: 14.6167	Name: Groditz	Count:471
1656	Lat: 51.2167	Long: 10.0167	Name: Eschwege	Count:297
1657	Lat: 51.2167	Long: 14.15	Name: Elstra	Count:174
1658	Lat: 51.2167	Long: 10.8167	Name: Bad Tennstedt	Count:276
1659	Lat: 51.2167	Long: 9.2667	Name: Emstal	Count:1210
1660	Lat: 51.2167	Long: 6.4667	Name: Neuwerk	Count:287
1661	Lat: 51.2167	Long: 10.45	Name: Mühlhausen	Count:2963
1662	Lat: 51.2167	Long: 14.5	Name: Doberschutz	Count:143
1663	Lat: 51.2167	Long: 7.2	Name: Muhle	Count:82
1664	Lat: 51.2167	Long: 12.5333	Name: Oelzschau	Count:584
1665	Lat: 51.2167	Long: 6.7667	Name: Dusseldorf	Count:740353
1666	Lat: 51.6165	Long: 7.3853	Name: Waltrop	Count:13988
1667	Lat: 52.606	Long: 9.0912	Name: Liebenau	Count:389
1668	Lat: 48.1526	Long: 11.5154	Name: Munich	Count:15639
1669	Lat: 49.4678	Long: 11.0693	Name: Nuremberg	Count:8040
1670	Lat: 52.5954	Long: 13.4314	Name: Berlin	Count:5230
1671	Lat: 52.1578	Long: 10.5579	Name: Wolfenbüttel	Count:8799
1672	Lat: 48.7638	Long: 8.1666	Name: Sinzheim	Count:6491
1673	Lat: 51.2779	Long: 7.7805	Name: Neuenrade	Count:8060
1674	Lat: 48.5609	Long: 9.2687	Name: Riederich	Count:2953
1675	Lat: 53.7099	Long: 9.9946	Name: Norderstedt	Count:6758
1676	Lat: 49.5925	Long: 9.9653	Name: Sachsenheim	Count:1681
1677	Lat: 48.7502	Long: 9.387	Name: Stuttgart	Count:687
1678	Lat: 48.0982	Long: 11.5821	Name: Munich	Count:23567
1679	Lat: 50.0625	Long: 9.0121	Name: Kahl am Main	Count:2143
1680	Lat: 50.0697	Long: 8.844	Name: Obertshausen	Count:10050
1681	Lat: 48.9445	Long: 8.4027	Name: Ettlingen	Count:23854
1682	Lat: 51.2811	Long: 9.6186	Name: Kaufungen	Count:3045
1683	Lat: 51.525	Long: 7.3676	Name: Dortmund	Count:21300
1684	Lat: 53.806	Long: 8.9162	Name: Otterndorf	Count:358
1685	Lat: 48.3457	Long: 8.6274	Name: Sulz am Neckar	Count:1835
1686	Lat: 49.7239	Long: 8.2008	Name: Hochborn	Count:779
1687	Lat: 49.8468	Long: 9.1622	Name: Elsenfeld	Count:4922
1688	Lat: 51.4004	Long: 6.8773	Name: Mülheim	Count:4758
1689	Lat: 49.8989	Long: 8.8444	Name: Dieburg	Count:1722
1690	Lat: 51.4753	Long: 11.9973	Name: Halle	Count:1271
1691	Lat: 47.9874	Long: 7.8945	Name: Freiburg	Count:6409
1692	Lat: 48.9076	Long: 9.1776	Name: Ludwigsburg	Count:10368
1693	Lat: 49.1167	Long: 13.2	Name: Bayerisch Eisenstein	Count:297
1694	Lat: 49.1167	Long: 10.3	Name: Schopfloch	Count:358
1695	Lat: 49.1167	Long: 7.5667	Name: Eppenbrunn	Count:451
1696	Lat: 50.952	Long: 7.1114	Name: Bergisch Gladbach	Count:6963
1697	Lat: 49.1557	Long: 8.283	Name: Rulzheim	Count:3435
1698	Lat: 53.4029	Long: 8.0344	Name: Bockhorn	Count:7414
1699	Lat: 52.0106	Long: 8.5493	Name: Bielefeld	Count:4563
1700	Lat: 51.9471	Long: 7.5446	Name: Münster	Count:6184
1701	Lat: 49.1369	Long: 8.9103	Name: Eppingen	Count:738
1702	Lat: 49.1386	Long: 9.1954	Name: Heilbronn	Count:12378
1703	Lat: 52.3105	Long: 9.4561	Name: Barsinghausen	Count:13424
1704	Lat: 51.3084	Long: 9.5668	Name: Kassel	Count:5640
1705	Lat: 51.4501	Long: 7.1984	Name: Bochum	Count:14039
1706	Lat: 53.659	Long: 13.5397	Name: Friedland	Count:881
1707	Lat: 51.691	Long: 7.8704	Name: Hamm	Count:12111
1708	Lat: 52.2	Long: 9.4667	Name: Bad Munder am Deister	Count:6040
1709	Lat: 52.2	Long: 10.2333	Name: Sohlde	Count:512
1710	Lat: 52.2	Long: 8.6333	Name: Kirchlengern	Count:6717
1711	Lat: 52.2	Long: 10.3	Name: Lengede	Count:1794
1712	Lat: 52.2	Long: 12.7667	Name: Bruck	Count:133
1713	Lat: 52.2	Long: 9.9	Name: Giesen	Count:1599
1714	Lat: 52.2	Long: 11.6333	Name: Barleben	Count:3353
1715	Lat: 52.2	Long: 7.9833	Name: Hagen	Count:2594
1716	Lat: 52.2	Long: 8.35	Name: Melle	Count:6625
1717	Lat: 52.2	Long: 8.5833	Name: Buende	Count:16624
1718	Lat: 52.2	Long: 7.3167	Name: Wettringen	Count:697
1719	Lat: 52.2	Long: 10.8833	Name: Rabke	Count:799
1720	Lat: 52.2	Long: 14.4	Name: Mixdorf	Count:358
1721	Lat: 52.2	Long: 7.0333	Name: Gronau	Count:12552
1722	Lat: 48.3996	Long: 9.8003	Name: Blaubeuren Abbey	Count:3374
1723	Lat: 50.0151	Long: 8.3446	Name: Hochheim am Main	Count:8245
1724	Lat: 54.3433	Long: 10.0994	Name: Kronshagen	Count:3886
1725	Lat: 53.1656	Long: 7.3463	Name: Weener	Count:5281
1726	Lat: 47.6181	Long: 7.6589	Name: Lörrach	Count:2974
1727	Lat: 51.4035	Long: 12.3418	Name: Leipzig	Count:1138
1728	Lat: 51.51	Long: 13.0133	Name: Torgau	Count:3527
1729	Lat: 49.3444	Long: 9.9886	Name: Schrozberg	Count:1958
1730	Lat: 49.0333	Long: 11.1833	Name: Stadelhofen	Count:502
1731	Lat: 49.0333	Long: 12.5333	Name: Wiesenfelden	Count:164
1732	Lat: 49.0333	Long: 10.1	Name: Jagstzell	Count:430
1733	Lat: 49.0333	Long: 12.2167	Name: Donaustauf	Count:2481
1734	Lat: 49.0333	Long: 13	Name: Teisnach	Count:656
1735	Lat: 49.0333	Long: 10.45	Name: Weiltingen	Count:646
1736	Lat: 48.7839	Long: 10.1055	Name: Oberkochen	Count:1825
1737	Lat: 47.6586	Long: 11.3682	Name: Kochel	Count:1374
1738	Lat: 52.6076	Long: 8.3663	Name: Diepholz	Count:5004
1739	Lat: 51.553	Long: 7.5385	Name: Dortmund	Count:7291
1740	Lat: 54.4167	Long: 9.6333	Name: Brekendorf	Count:20
1741	Lat: 54.4167	Long: 9.9333	Name: Bornstein	Count:297
1742	Lat: 54.4167	Long: 13.4333	Name: Bergen auf Ruegen	Count:4235
1743	Lat: 54.4167	Long: 10.2667	Name: Laboe	Count:1446
1744	Lat: 54.4167	Long: 8.9333	Name: Uelvesbull	Count:133
1745	Lat: 54.4167	Long: 10.3	Name: Wendtorf	Count:266
1746	Lat: 54.4167	Long: 10.05	Name: Felm	Count:256
1747	Lat: 49.4022	Long: 6.9706	Name: Eppelborn	Count:4389
1748	Lat: 54.3492	Long: 10.1887	Name: Monkeberg	Count:594
1749	Lat: 48.5314	Long: 9.1386	Name: Kirchentellinsfurt	Count:3045
1750	Lat: 49.2192	Long: 8.03	Name: Albersweiler	Count:676
1751	Lat: 52.4908	Long: 13.331	Name: Berlin	Count:7394
1752	Lat: 53.5886	Long: 10.0483	Name: Hamburg	Count:18449
1753	Lat: 53.1003	Long: 8.8752	Name: Bremen	Count:5979
1754	Lat: 52.2667	Long: 11.85	Name: Burg bei Magdeburg	Count:4522
1755	Lat: 52.2667	Long: 8.05	Name: Osnabrück	Count:62374
1756	Lat: 52.2667	Long: 7.7333	Name: Ibbenbueren	Count:6184
1757	Lat: 52.2667	Long: 10.3833	Name: Vechelde	Count:738
1758	Lat: 52.2667	Long: 11.5667	Name: Samswegen	Count:758
1759	Lat: 52.2667	Long: 13.6	Name: Krummensee	Count:256
1760	Lat: 52.2667	Long: 14.5833	Name: Brieskow-Finkenheerd	Count:851
