Locations in Brazil
0	Lat: -28.3667	Long: -53.25	Name: Santa Barbara do Sul	Count:123
1	Lat: -21.9	Long: -45.6	Name: Sao Goncalo do Sapucai	Count:246
2	Lat: -21.9	Long: -47.6167	Name: Descalvado	Count:379
3	Lat: -21.9	Long: -49.0167	Name: Iacanga	Count:235
4	Lat: -23.6545	Long: -47.2182	Name: Ibiuna	Count:881
5	Lat: -13.4333	Long: -49.1667	Name: Porangatu	Count:328
6	Lat: -19.4167	Long: -40.7	Name: Conceicao	Count:1261
7	Lat: -19.4167	Long: -40.5167	Name: Marilandia	Count:358
8	Lat: -19.4167	Long: -40.0667	Name: Linhares	Count:3702
9	Lat: -30.0833	Long: -51.7167	Name: Arroio dos Ratos	Count:389
10	Lat: -30.0833	Long: -51.0333	Name: Viamão	Count:7271
11	Lat: -6.75	Long: -38.95	Name: Lavras da Mangabeira	Count:287
12	Lat: -6.75	Long: -43.0167	Name: Floriano	Count:256
13	Lat: -6.75	Long: -38.2333	Name: Sousa	Count:1835
14	Lat: -29.9833	Long: -52.3667	Name: Rio Pardo	Count:143
15	Lat: -22.2833	Long: -44.8833	Name: Passa Quatro	Count:317
16	Lat: -22.2833	Long: -46.6167	Name: Jacutinga	Count:430
17	Lat: -22.2833	Long: -48.1167	Name: Brotas	Count:246
18	Lat: -22.2833	Long: -51.4167	Name: Presidente Prudente	Count:133
19	Lat: -1.3167	Long: -50.0833	Name: Vicente	Count:153
20	Lat: -10.2228	Long: -48.2778	Name: Palmas	Count:8624
21	Lat: -24	Long: -46.4	Name: Praia Grande	Count:54652
22	Lat: -24	Long: -46.2667	Name: Guaruja	Count:17742
23	Lat: -2.9092	Long: -41.7747	Name: Parnaiba	Count:2953
24	Lat: -15.9	Long: -44.3	Name: Lontra	Count:369
25	Lat: -15.9	Long: -54.4333	Name: Garimpo Novo	Count:246
26	Lat: -28.8167	Long: -49.85	Name: Timbe	Count:379
27	Lat: -27.45	Long: -52.9167	Name: Trindade	Count:41
28	Lat: -27.45	Long: -53.9333	Name: Tres Passos	Count:256
29	Lat: -29.8833	Long: -54.8167	Name: Cacequi	Count:61
30	Lat: -30.6	Long: -51.75	Name: Cerro Grande	Count:10
31	Lat: -20.4	Long: -42.9	Name: Ponte Nova	Count:235
32	Lat: -20.4	Long: -49.9833	Name: Votuporanga	Count:1005
33	Lat: -20.4	Long: -50.9667	Name: Nova Canaa	Count:184
34	Lat: -28.9667	Long: -51.0667	Name: Sao Marcos	Count:758
35	Lat: -29.88	Long: -50.7957	Name: Gravataí	Count:194
36	Lat: -28.05	Long: -51.8667	Name: Sananduva	Count:71
37	Lat: -10.6	Long: -38.3833	Name: Cicero Dantas	Count:174
38	Lat: -10.8667	Long: -37.1167	Name: Nossa Senhora do Socorro	Count:2625
39	Lat: -23.0114	Long: -47.5261	Name: Rafard	Count:194
40	Lat: -28.4833	Long: -48.7833	Name: Laguna	Count:1261
41	Lat: -7.2667	Long: -34.9	Name: Conde	Count:143
42	Lat: -22.5	Long: -47.7667	Name: Charqueada	Count:266
43	Lat: -22.5	Long: -44.5667	Name: Itatiaia	Count:984
44	Lat: -21.95	Long: -48	Name: Ibate	Count:164
45	Lat: -21.95	Long: -44.1833	Name: Bom Jardim de Minas	Count:676
46	Lat: -6.9833	Long: -39.7333	Name: Farias Brito	Count:338
47	Lat: -19.3833	Long: -42.4167	Name: Ipatinga	Count:102
48	Lat: -1.0833	Long: -47.0333	Name: Sao Domingos	Count:153
49	Lat: -7.2167	Long: -37.25	Name: Teixeira	Count:1076
50	Lat: -7.2167	Long: -35.8833	Name: Campina Grande	Count:10030
51	Lat: -28.1	Long: -50.9833	Name: Estrela	Count:30
52	Lat: -31.3667	Long: -51.9667	Name: Sao Lourenco do Sul	Count:71
53	Lat: -22.9	Long: -43.0997	Name: Icarai	Count:133
54	Lat: -22.9	Long: -51.05	Name: Coelho	Count:594
55	Lat: -22.9	Long: -45.3	Name: Pindamonhangaba	Count:389
56	Lat: -22.9	Long: -49.9833	Name: Ourinhos	Count:153
57	Lat: -22.9	Long: -43.2333	Name: Rio de Janeiro	Count:997739
58	Lat: -22.9	Long: -47.0833	Name: Campinas	Count:155341
59	Lat: -22.9	Long: -53.1667	Name: Loanda	Count:143
60	Lat: -11.7225	Long: -49.0122	Name: Gurupi	Count:215
61	Lat: -11.9333	Long: -38.0833	Name: Entre Rios	Count:215
62	Lat: -16.4167	Long: -49.2333	Name: Neropolis	Count:215
63	Lat: -29.4667	Long: -53.4667	Name: Nova Palma	Count:153
64	Lat: -23.8115	Long: -50.139	Name: Japira	Count:102
65	Lat: -17.0833	Long: -53.2333	Name: Paraiso	Count:41
66	Lat: -17.1833	Long: -46.85	Name: Sao Sebastiao	Count:10
67	Lat: -16.0667	Long: -57.6833	Name: Caceres	Count:523
68	Lat: -15.7833	Long: -47.9167	Name: Brasília	Count:164141
69	Lat: -30.9833	Long: -54.6667	Name: Dom Pedrito	Count:523
70	Lat: -29.0287	Long: -51.1822	Name: Flores da Cunha	Count:1353
71	Lat: -27.0992	Long: -48.615	Name: Itapema	Count:6091
72	Lat: -24.15	Long: -51.7167	Name: Jardim Alegre	Count:194
73	Lat: -7.65	Long: -40.1167	Name: Ipubi	Count:133
74	Lat: -3.3667	Long: -42.4	Name: Sao Bernardo	Count:1158
75	Lat: -22.45	Long: -46.35	Name: Bueno Brandao	Count:338
76	Lat: -22.45	Long: -55.0167	Name: Caarapo	Count:215
77	Lat: -18.8833	Long: -41.1	Name: Mantenopolis	Count:92
78	Lat: -22.4416	Long: -42.9838	Name: Alto	Count:256
79	Lat: -22.6556	Long: -43.0153	Name: Mage	Count:7271
80	Lat: -29.6	Long: -50.9167	Name: Novo Hamburgo	Count:61
81	Lat: -29.6	Long: -51.1667	Name: Ivoti	Count:246
82	Lat: -29.6	Long: -52.1833	Name: Venancio Aires	Count:153
83	Lat: -8.6833	Long: -35.6	Name: Palmares	Count:707
84	Lat: -10.7667	Long: -38.9	Name: Sao Domingos	Count:51
85	Lat: -19.9667	Long: -44.2167	Name: Betim	Count:9301
86	Lat: -23.5698	Long: -49.9116	Name: Quatigua	Count:430
87	Lat: -18.5833	Long: -39.75	Name: Conceicao da Barra	Count:246
88	Lat: -18.5833	Long: -48.7	Name: Tupaciguara	Count:430
89	Lat: -18.5833	Long: -46.5333	Name: Patos de Minas	Count:2943
90	Lat: -10.1333	Long: -36.1667	Name: Coruripe	Count:1220
91	Lat: -3.3	Long: -60.6167	Name: Manacapuru	Count:348
92	Lat: -1.35	Long: -45.8	Name: Sao Miguel	Count:553
93	Lat: -11.3667	Long: -37.65	Name: Umbauba	Count:789
94	Lat: -22.1114	Long: -43.2078	Name: Tres Rios	Count:3384
95	Lat: -18.7833	Long: -42.95	Name: Guanhaes	Count:1005
96	Lat: -18.7833	Long: -40.9833	Name: Mantena	Count:953
97	Lat: -22.8418	Long: -45.2287	Name: Aparecida	Count:1907
98	Lat: -19.5	Long: -43.75	Name: Jaboticatubas	Count:399
99	Lat: -19.5	Long: -42.5333	Name: Ipatinga	Count:3558
100	Lat: -22.4061	Long: -43.6642	Name: Vassouras	Count:2163
101	Lat: -16.95	Long: -42.4833	Name: Berilo	Count:20
102	Lat: -16.95	Long: -51.8167	Name: Caiaponia	Count:379
103	Lat: -26.2394	Long: -49.4999	Name: Rio Negrinho	Count:769
104	Lat: -6.2333	Long: -42.8333	Name: Amarante	Count:1005
105	Lat: -16.3833	Long: -46.8833	Name: Unai	Count:1025
106	Lat: 3.8333	Long: -60.2167	Name: Olho d'Agua	Count:1681
107	Lat: -29.9333	Long: -51.7167	Name: Triunfo	Count:51
108	Lat: -29.9333	Long: -51.1833	Name: Canoas	Count:16470
109	Lat: -4.4667	Long: -38.9167	Name: Aracoiaba	Count:482
110	Lat: -23.3	Long: -51.15	Name: Londrina	Count:75286
111	Lat: -23.3	Long: -47.1333	Name: Cabreuva	Count:2553
112	Lat: -23.3	Long: -51.3667	Name: Rolandia	Count:2379
113	Lat: -27.1	Long: -48.9333	Name: Brusque	Count:8645
114	Lat: -1.5	Long: -48.6667	Name: Barcarena	Count:502
115	Lat: -13.95	Long: -39.1167	Name: Acarai	Count:348
116	Lat: -19.2333	Long: -40.85	Name: Pancas	Count:205
117	Lat: -11.5167	Long: -39.0667	Name: Conceicao do Coite	Count:502
118	Lat: -29.4167	Long: -54.8333	Name: Nova Esperanca	Count:51
119	Lat: -16.4667	Long: -43.5	Name: Francisco Sa	Count:61
120	Lat: -16.4667	Long: -54.6333	Name: Rondonópolis	Count:3794
121	Lat: -16.4667	Long: -51.1167	Name: Ipora	Count:112
122	Lat: -20.0833	Long: -41.1333	Name: Alambique	Count:235
123	Lat: -20.0833	Long: -42.3667	Name: Matipo	Count:123
124	Lat: -20.0833	Long: -50.3333	Name: Guarani dOeste	Count:194
125	Lat: -20.0833	Long: -45.2833	Name: Santo Antonio do Monte	Count:471
126	Lat: -9.3833	Long: -71.9333	Name: Foz do Jordao	Count:71
127	Lat: -21.7517	Long: -43.3528	Name: Juiz de Fora	Count:12922
128	Lat: -5.25	Long: -44.5	Name: Presidente Dutra	Count:225
129	Lat: -5.25	Long: -38.1167	Name: Limoeiro do Norte	Count:164
130	Lat: -24.7285	Long: -48.1105	Name: Cajati	Count:348
131	Lat: -21.0667	Long: -49.3833	Name: Sao Jose do Rio Preto	Count:266
132	Lat: -9.35	Long: -38.2333	Name: Paulo Afonso	Count:153
133	Lat: -9.2833	Long: -38.2667	Name: Freitas	Count:8932
134	Lat: -28.2833	Long: -54.6333	Name: Caibate	Count:61
135	Lat: -28.2833	Long: -49.1833	Name: Braco do Norte	Count:369
136	Lat: -24.0167	Long: -53.4667	Name: Alto Piquiri	Count:769
137	Lat: -24.0167	Long: -48.3333	Name: Capao Bonito	Count:205
138	Lat: -22.4679	Long: -44.4575	Name: Resende	Count:7958
139	Lat: -21.6167	Long: -42.1	Name: Itaocara	Count:143
140	Lat: -21.6167	Long: -45.5667	Name: Eloi Mendes	Count:451
141	Lat: -25.8804	Long: -48.571	Name: Guaratuba	Count:964
142	Lat: -8.2333	Long: -35.75	Name: Bezerros	Count:2051
143	Lat: -8.2333	Long: -35.45	Name: Cha Grande	Count:635
144	Lat: -23.8833	Long: -47.9833	Name: Sao Miguel Arcanjo	Count:225
145	Lat: -23.8833	Long: -46.4167	Name: Cubatao	Count:5076
146	Lat: -26.4333	Long: -49.0667	Name: Jaraguá do Sul	Count:266
147	Lat: -22.8	Long: -51.6167	Name: Centenario do Sul	Count:184
148	Lat: -22.8	Long: -48.1167	Name: Anhembi	Count:225
149	Lat: -22.8	Long: -51.0167	Name: Porto Casa Nova	Count:30
150	Lat: -22.8	Long: -47.2833	Name: Sumare	Count:17588
151	Lat: -26.0947	Long: -49.7693	Name: Bom Jesus	Count:184
152	Lat: -21.7333	Long: -46.9667	Name: Vargem Grande do Sul	Count:30
153	Lat: -25.2413	Long: -53.983	Name: Matelandia	Count:102
154	Lat: -8.2667	Long: -38.0333	Name: Betania	Count:20
155	Lat: -27.9167	Long: -53.2833	Name: Palmeira das Missoes	Count:738
156	Lat: -22.9667	Long: -45.55	Name: Tremembe	Count:3445
157	Lat: -22.9667	Long: -53.6	Name: Querencia	Count:399
158	Lat: -22.9667	Long: -42.0167	Name: Arraial do Cabo	Count:297
159	Lat: -22.9667	Long: -53.2333	Name: Loanda	Count:92
160	Lat: -22.9667	Long: -45.8333	Name: São José dos Campos	Count:420
161	Lat: -21.5833	Long: -48.3667	Name: Matao	Count:3589
162	Lat: -21.5833	Long: -48.7667	Name: Itapolis	Count:1025
163	Lat: -9.6333	Long: -36.4833	Name: Taquarana	Count:153
164	Lat: -11.8	Long: -39.35	Name: Riachao do Jacuipe	Count:2625
165	Lat: -27.0448	Long: -49.6224	Name: Presidente Getulio	Count:112
166	Lat: -25.5167	Long: -48.5	Name: Paranaguá	Count:8419
167	Lat: -25.5167	Long: -48.8833	Name: America de Cima	Count:656
168	Lat: -25.5167	Long: -49.2167	Name: São José dos Pinhais	Count:14942
169	Lat: -5.8833	Long: -38.6167	Name: Jaguaribe	Count:923
170	Lat: -23.4507	Long: -46.5262	Name: Guarulhos	Count:115293
171	Lat: -16.5	Long: -49.0167	Name: Goianapolis	Count:1856
172	Lat: -16.5	Long: -49.4333	Name: Goianira	Count:492
173	Lat: -23.35	Long: -46.8833	Name: Cajamar	Count:4153
174	Lat: -23.35	Long: -47.6833	Name: Ipero	Count:902
175	Lat: -22.1167	Long: -45.5	Name: Natercia	Count:133
176	Lat: -22.1167	Long: -45.05	Name: São Lourenço	Count:861
177	Lat: -22.1167	Long: -48.3	Name: Boa Esperanca do Sul	Count:820
178	Lat: -22.1167	Long: -51.3667	Name: Presidente Prudente	Count:7650
179	Lat: -22.1167	Long: -41.5833	Name: Sao Francisco	Count:830
180	Lat: -22.1167	Long: -46.6833	Name: Espirito Santo do Pinhal	Count:20
181	Lat: -4.3667	Long: -39.3167	Name: Caninde	Count:256
182	Lat: -7.55	Long: -34.9833	Name: Goiana	Count:1117
183	Lat: -7.55	Long: -40.5667	Name: Araripina	Count:112
184	Lat: -19.95	Long: -43.8	Name: Belo Horizonte	Count:994
185	Lat: -19.95	Long: -44.3333	Name: Juatuba	Count:615
186	Lat: -19.95	Long: -45.0667	Name: Divinopolis	Count:164
187	Lat: -5.1064	Long: -36.3203	Name: Guamare	Count:482
188	Lat: -22.7114	Long: -43.7228	Name: Aguas Lindas	Count:358
189	Lat: -21.3833	Long: -41.65	Name: Duas Barras	Count:153
190	Lat: -21.3833	Long: -47.05	Name: Campo	Count:871
191	Lat: -10.7167	Long: -39.85	Name: Itiuba	Count:276
192	Lat: -10.7167	Long: -42.1833	Name: Cidade	Count:769
193	Lat: -8.2411	Long: -49.2961	Name: Conceicao do Araguaia	Count:266
194	Lat: -24.9333	Long: -50.0833	Name: Carambei	Count:123
195	Lat: -5.7167	Long: -35.55	Name: Macaiba	Count:440
196	Lat: -20.3	Long: -47.3	Name: Balsamo	Count:112
197	Lat: -20.3	Long: -45.6833	Name: Velha	Count:1210
198	Lat: -14.45	Long: -48.45	Name: Niquelandia	Count:758
199	Lat: -20.2333	Long: -50.65	Name: Jales	Count:112
200	Lat: -20.2333	Long: -56.3667	Name: Miranda	Count:92
201	Lat: -20.2333	Long: -41.5167	Name: Ibatiba	Count:92
202	Lat: -9.5667	Long: -35.8167	Name: Satuba	Count:256
203	Lat: -3.9167	Long: -42.95	Name: Porto	Count:482
204	Lat: -5.5333	Long: -41.9	Name: Fortaleza	Count:523
205	Lat: -5.5333	Long: -35.8	Name: Joao Camara	Count:430
206	Lat: -5.5333	Long: -47.4833	Name: Imperatriz	Count:16203
207	Lat: -23.4667	Long: -47.75	Name: Capela do Alto	Count:92
208	Lat: -23.4667	Long: -50.75	Name: Sao Sebastiao da Amoreira	Count:287
209	Lat: -23.4667	Long: -51.7	Name: Maringá	Count:564
210	Lat: -23.4667	Long: -51.4167	Name: Aricanduva	Count:92
211	Lat: -23.0833	Long: -47.2333	Name: Indaiatuba	Count:15844
212	Lat: -23.0833	Long: -55.2167	Name: Amambai	Count:133
213	Lat: -23.0833	Long: -48.9167	Name: Avare	Count:1825
214	Lat: -8.8833	Long: -36.2	Name: Canhotinho	Count:235
215	Lat: -30.25	Long: -54.9167	Name: Rosario do Sul	Count:133
216	Lat: -10.55	Long: -37.5333	Name: Frei Paulo	Count:164
217	Lat: -4.5	Long: -39.6167	Name: Itatira	Count:635
218	Lat: -22.0667	Long: -41.8667	Name: Conceicao de Macabu	Count:646
219	Lat: -22.0667	Long: -46.9667	Name: Aguai	Count:697
220	Lat: -22.0667	Long: -48.1667	Name: Ribeirao Bonito	Count:51
221	Lat: -22.0667	Long: -45.5333	Name: Heliodora	Count:20
222	Lat: -22.0667	Long: -46.5667	Name: Andradas	Count:82
223	Lat: -29.7	Long: -51.25	Name: Portao	Count:748
224	Lat: -29.7	Long: -51.4667	Name: Montenegro	Count:1148
225	Lat: -8.7833	Long: -35.8333	Name: Maraial	Count:92
226	Lat: -22.9966	Long: -45.044	Name: Paraitinga	Count:41
227	Lat: -27.1333	Long: -53.7167	Name: Itapiranga	Count:430
228	Lat: -25.2833	Long: -49.2333	Name: Colombo	Count:9835
229	Lat: -25.2833	Long: -54.0833	Name: Medianeira	Count:964
230	Lat: -23.0167	Long: -51.8	Name: Astorga	Count:61
231	Lat: -23.0167	Long: -48	Name: Conchas	Count:358
232	Lat: -23.0167	Long: -46.9833	Name: Vinhedo	Count:9896
233	Lat: -23.0167	Long: -50.4333	Name: Bandeirantes	Count:41
234	Lat: -0.8667	Long: -52.5167	Name: Coracao de Jesus	Count:635
235	Lat: -5.7	Long: -35.3	Name: Extremoz	Count:205
236	Lat: -20.85	Long: -41.1	Name: Cachoeiro de Itapemirim	Count:4738
237	Lat: -10.7333	Long: -40.35	Name: Pindobacu	Count:194
238	Lat: -10.7333	Long: -37.8167	Name: Simao Dias	Count:1322
239	Lat: -20.8833	Long: -49.55	Name: Sao Jose do Rio Preto	Count:584
240	Lat: -20.8833	Long: -47.6167	Name: Batatais	Count:1117
241	Lat: -20.8833	Long: -48.8167	Name: Cajobi	Count:1046
242	Lat: -25.4333	Long: -49.5333	Name: Campo Largo	Count:6327
243	Lat: -25.4333	Long: -49.0667	Name: Piraquara	Count:3004
244	Lat: -27.8	Long: -54.7667	Name: Bom Principio	Count:174
245	Lat: -27.8	Long: -50.3167	Name: Lages	Count:2943
246	Lat: -2.95	Long: -44.2333	Name: Rosario	Count:1343
247	Lat: -15.7	Long: -44.0333	Name: Varzelandia	Count:92
248	Lat: -22.7333	Long: -45.1333	Name: Lorena	Count:4194
249	Lat: -22.7333	Long: -42.7167	Name: Tangua	Count:143
250	Lat: -22.7333	Long: -48.5667	Name: Sao Manuel	Count:451
251	Lat: -21.9667	Long: -51.65	Name: Presidente Venceslau	Count:461
252	Lat: -21.9667	Long: -45.35	Name: Lambari	Count:266
253	Lat: -21.9667	Long: -42.3667	Name: Cantagalo	Count:174
254	Lat: -21.9667	Long: -46.7833	Name: Sao Joao da Boa Vista	Count:2686
255	Lat: -5.8167	Long: -46.1333	Name: Grajau	Count:2840
256	Lat: -15.1333	Long: -49.8	Name: Rubiataba	Count:102
257	Lat: -15.1333	Long: -42.9667	Name: Monte Azul	Count:41
258	Lat: -28.75	Long: -49.4667	Name: Forquilhinha	Count:2051
259	Lat: -7.4167	Long: -35.1	Name: Itambe	Count:225
260	Lat: -25.6224	Long: -50.6931	Name: Reboucas	Count:143
261	Lat: -24.7833	Long: -50	Name: Castro	Count:266
262	Lat: -20.5167	Long: -41.9	Name: Caparao	Count:61
263	Lat: -20.5167	Long: -44.4833	Name: Piracema	Count:10
264	Lat: -20.5167	Long: -42.3333	Name: Pedra Bonita	Count:225
265	Lat: -4.1333	Long: -40.5	Name: Reriutaba	Count:1405
266	Lat: -4.1333	Long: -44.1333	Name: Coroata	Count:51
267	Lat: -5.5167	Long: -38.25	Name: Castolandia	Count:153
268	Lat: -14.75	Long: -40.0667	Name: Iguai	Count:205
269	Lat: -23.2133	Long: -47.5231	Name: Porto Feliz	Count:1999
270	Lat: -17.1167	Long: -43.8167	Name: Bocaiuva	Count:307
271	Lat: -5.1167	Long: -36.6333	Name: Macau	Count:574
272	Lat: -5.1167	Long: -38.3833	Name: Morada Nova	Count:1907
273	Lat: -6.3	Long: -38.4667	Name: Parana	Count:287
274	Lat: -22.6667	Long: -45.85	Name: Campos do Jordao	Count:482
275	Lat: -22.6667	Long: -45.0167	Name: Cruzeiro	Count:2081
276	Lat: -22.6667	Long: -50.4167	Name: Assis	Count:1897
277	Lat: -27.7167	Long: -52.6167	Name: Campinas do Sul	Count:20
278	Lat: -22.7229	Long: -43.5563	Name: Queimados	Count:6317
279	Lat: -26.8333	Long: -53.25	Name: Iraceminha	Count:71
280	Lat: -26.8333	Long: -49.3	Name: Timbo	Count:1179
281	Lat: -26.8333	Long: -53.5833	Name: Belmonte	Count:205
282	Lat: -23.9333	Long: -51.6	Name: Faxinal	Count:215
283	Lat: -4.3333	Long: -40.7	Name: Ipu	Count:1517
284	Lat: -4.3333	Long: -38.8833	Name: Baturite	Count:1240
285	Lat: -25.3	Long: -49.0833	Name: Campina Grande do Sul	Count:1302
286	Lat: -25.3	Long: -49.3167	Name: Almirante Tamandare	Count:3025
287	Lat: -22.4169	Long: -42.9562	Name: Tijuca	Count:584
288	Lat: -21.0333	Long: -49.5	Name: Sao Jose do Rio Preto	Count:205
289	Lat: -21.0333	Long: -48.7667	Name: Catanduva	Count:92
290	Lat: -21.0333	Long: -47.7667	Name: Jardinopolis	Count:502
291	Lat: -21.0333	Long: -48.2167	Name: Pitangueiras	Count:769
292	Lat: -21.0333	Long: -40.8333	Name: Marataizes	Count:194
293	Lat: -21.0333	Long: -41.6667	Name: Sao Jose do Calcado	Count:215
294	Lat: -22.6489	Long: -43.6586	Name: Japeri	Count:2974
295	Lat: -8.05	Long: -34.9	Name: Recife	Count:223952
296	Lat: -27.0667	Long: -52.9833	Name: Aguas de Chapeco	Count:92
297	Lat: -24.7	Long: -48.0044	Name: Jacupiranga	Count:297
298	Lat: -10.2833	Long: -36.4	Name: Marituba	Count:625
299	Lat: -10.2833	Long: -36.6	Name: Penedo	Count:717
300	Lat: -10.2833	Long: -37.0333	Name: Aquidaba	Count:215
301	Lat: -24.1333	Long: -53.6667	Name: Santa Helena	Count:133
302	Lat: -5.7281	Long: -47.33	Name: Imperatriz	Count:482
303	Lat: -19.85	Long: -43.45	Name: Barao de Cocais	Count:164
304	Lat: -19.85	Long: -44.6167	Name: Para de Minas	Count:451
305	Lat: -19.6167	Long: -43.2167	Name: Itabira	Count:3240
306	Lat: -19.15	Long: -51.75	Name: Cassilandia	Count:143
307	Lat: -19.15	Long: -40.6167	Name: Sao Domingos	Count:41
308	Lat: -22.6278	Long: -43.9019	Name: Pirai	Count:235
309	Lat: -13.2333	Long: -39.6	Name: Ubaira	Count:10
310	Lat: -21.1667	Long: -47.8	Name: Ribeirão Preto	Count:47022
311	Lat: -21.1667	Long: -49.1167	Name: Elisiario	Count:307
312	Lat: -21.1667	Long: -49.7167	Name: Ubarana	Count:123
313	Lat: -21.1667	Long: -43.0333	Name: Tocantins	Count:543
314	Lat: -25.58	Long: -48.3542	Name: Paranaguá	Count:2030
315	Lat: -28.3333	Long: -51.7667	Name: Muliterno	Count:51
316	Lat: -28.3333	Long: -49.1833	Name: Sao Sebastiao	Count:348
317	Lat: -20.4333	Long: -42.8	Name: Oratorios	Count:143
318	Lat: -20.4333	Long: -44.7667	Name: Claudio	Count:287
319	Lat: -20.4333	Long: -54.8333	Name: Campo Grande	Count:379
320	Lat: -20.4333	Long: -47.8333	Name: Guara	Count:430
321	Lat: 0.0333	Long: -51.05	Name: Macapá	Count:13998
322	Lat: -8.2	Long: -37.9833	Name: Sao Caetano	Count:174
323	Lat: -8.2	Long: -35.5667	Name: Gravatá	Count:2522
324	Lat: -6.1833	Long: -37.5333	Name: Belem	Count:1374
325	Lat: -23.7131	Long: -47.4146	Name: Piedade	Count:451
326	Lat: -27.7333	Long: -51.5833	Name: Sao Jose do Ouro	Count:133
327	Lat: -22.762	Long: -43.4047	Name: Belford Roxo	Count:15619
328	Lat: -27.9644	Long: -48.6825	Name: Paulo Lopes	Count:225
329	Lat: -20.5333	Long: -47.4	Name: Franca	Count:8542
330	Lat: -20.5333	Long: -43.7	Name: Ouro Branco	Count:2235
331	Lat: -15.9167	Long: -52.25	Name: Barra do Garças	Count:440
332	Lat: -15.9167	Long: -48.8	Name: Corumba de Goias	Count:287
333	Lat: -4.0667	Long: -45.1667	Name: Vitorino Freire	Count:1681
334	Lat: -4.4089	Long: -69.8642	Name: Esperanca	Count:61
335	Lat: -26.5667	Long: -52.5333	Name: Sao Domingos	Count:184
336	Lat: -6.6667	Long: -35.3	Name: Jacarau	Count:430
337	Lat: -25.2	Long: -50.95	Name: Prudentopolis	Count:102
338	Lat: -25.2	Long: -53.1333	Name: Catanduvas	Count:112
339	Lat: -25.2	Long: -50.5833	Name: Imbituva	Count:348
340	Lat: -3.6333	Long: -39.5	Name: Uruburetama	Count:184
341	Lat: -2.6833	Long: -49.6833	Name: Baiao	Count:41
342	Lat: -25.4735	Long: -50.6524	Name: Irati	Count:861
343	Lat: -19.5167	Long: -42.6333	Name: Coronel Fabriciano	Count:2256
344	Lat: -13.25	Long: -43.4167	Name: Bom Jesus da Lapa	Count:687
345	Lat: -21.65	Long: -41.7333	Name: Sao Fidelis	Count:1620
346	Lat: -5.05	Long: -39.55	Name: Joaquim	Count:225
347	Lat: -5.05	Long: -42.4667	Name: Altos	Count:697
348	Lat: -12.4833	Long: -38.2167	Name: Camacari	Count:4450
349	Lat: -19.6667	Long: -44.9	Name: Pitangui	Count:748
350	Lat: -19.6667	Long: -43.9167	Name: Vespasiano	Count:1753
351	Lat: -19.6667	Long: -51.1833	Name: Paranaiba	Count:328
352	Lat: -9.7167	Long: -35.9	Name: Marechal Deodoro	Count:1076
353	Lat: -29.8333	Long: -51.15	Name: Sapucaia	Count:5107
354	Lat: -29.8333	Long: -50.5333	Name: Santo Antonio da Patrulha	Count:1589
355	Lat: -18.9333	Long: -54.8667	Name: Rio Verde de Mato Grosso	Count:3425
356	Lat: -1.8333	Long: -44.8667	Name: Cururupu	Count:574
357	Lat: -5.0833	Long: -37.6167	Name: Barauna	Count:1179
358	Lat: -5.0833	Long: -37.9833	Name: Quixere	Count:769
359	Lat: -5.0833	Long: -42.8167	Name: Teresina	Count:31638
360	Lat: -30.3	Long: -51.3	Name: Guaíba	Count:235
361	Lat: -30.3	Long: -52.85	Name: Cordilheira	Count:41
362	Lat: -26.2333	Long: -48.65	Name: Sao Francisco do Sul	Count:1907
363	Lat: -10.5667	Long: -40.2833	Name: Itinga da Serra	Count:51
364	Lat: -22.1294	Long: -43.735	Name: Coroas	Count:235
365	Lat: -7.0333	Long: -35.8833	Name: Campina Grande	Count:133
366	Lat: -22.0333	Long: -48.8833	Name: Bariri	Count:205
367	Lat: -22.0333	Long: -42.3667	Name: Cordeiro	Count:348
368	Lat: -3.9667	Long: -38.6167	Name: Pacatuba	Count:1312
369	Lat: -3.9667	Long: -38.5167	Name: Itaitinga	Count:174
370	Lat: -24.25	Long: -51.75	Name: Ivaipora	Count:369
371	Lat: -24.25	Long: -49.7	Name: Jaguariaiva	Count:533
372	Lat: -3.5	Long: -39.5833	Name: Itapipoca	Count:2204
373	Lat: -28.0667	Long: -52	Name: Tapejara	Count:225
374	Lat: -28.0667	Long: -48.6667	Name: Imbituba	Count:1476
375	Lat: -27.7	Long: -53.8	Name: Campo Novo	Count:10
376	Lat: -29.1333	Long: -56.55	Name: Itaqui	Count:194
377	Lat: -25.4314	Long: -48.7184	Name: Antonina	Count:902
378	Lat: -30.85	Long: -51.8167	Name: Camaqua	Count:153
379	Lat: -20.15	Long: -44.9	Name: Divinopolis	Count:2625
380	Lat: -20.15	Long: -42.9667	Name: Dom Silverio	Count:51
381	Lat: -20.15	Long: -41.2833	Name: Brejetuba	Count:287
382	Lat: -18.1667	Long: -47.95	Name: Catalao	Count:605
383	Lat: -8.3333	Long: -36.4333	Name: Belo Jardim	Count:123
384	Lat: -7.16	Long: -48.0575	Name: Araguaína	Count:256
385	Lat: -31.3333	Long: -54.1	Name: Bagé	Count:1322
386	Lat: -29.8	Long: -50.3	Name: Osorio	Count:399
387	Lat: -29.8	Long: -51.85	Name: Taquari	Count:851
388	Lat: -23.1033	Long: -46.7281	Name: Jarinu	Count:687
389	Lat: -10.7	Long: -38.1833	Name: Poco Verde	Count:369
390	Lat: -7.9333	Long: -35.35	Name: Feira Nova	Count:215
391	Lat: -28.7333	Long: -52.85	Name: Espumoso	Count:492
392	Lat: -28.7333	Long: -51.7	Name: Nova Prata	Count:758
393	Lat: -14.4167	Long: -56.45	Name: Diamantino	Count:20
394	Lat: -7.3167	Long: -39.2833	Name: Juazeiro do Norte	Count:174
395	Lat: -12.1333	Long: -45	Name: Barreiras	Count:1876
396	Lat: -22.75	Long: -53	Name: Nova Londrina	Count:328
397	Lat: -22.75	Long: -41.8833	Name: Armacao de Buzios	Count:523
398	Lat: -22.75	Long: -42.8667	Name: Itaborai	Count:5804
399	Lat: -22.75	Long: -47.1667	Name: Paulinia	Count:7271
400	Lat: -14.3	Long: -39	Name: Itacare	Count:1097
401	Lat: -14.3	Long: -39.3333	Name: Ubaitaba	Count:164
402	Lat: -14.3	Long: -43.7833	Name: Carinhanha	Count:933
403	Lat: -5.9167	Long: -35.75	Name: Sao Paulo do Potengi	Count:1487
404	Lat: -5.9167	Long: -35.25	Name: Parnamirim	Count:22244
405	Lat: -20.2	Long: -48.05	Name: Miguelopolis	Count:10
406	Lat: -20.2	Long: -47.3833	Name: Sao Jose	Count:830
407	Lat: -22.6086	Long: -43.7128	Name: Paracambi	Count:1589
408	Lat: -22.9067	Long: -43.5529	Name: Campo Grande	Count:1271
409	Lat: -28.6333	Long: -49.1333	Name: Sangao	Count:143
410	Lat: -25.4754	Long: -48.8293	Name: Morretes	Count:358
411	Lat: -26.2497	Long: -49.3825	Name: São Bento do Sul	Count:2656
412	Lat: -6.85	Long: -35.4833	Name: Guarabira	Count:1610
413	Lat: -28.35	Long: -49.3	Name: Orleans	Count:492
414	Lat: -5.8	Long: -39.4167	Name: Piquet Carneiro	Count:492
415	Lat: -16.6667	Long: -49.5	Name: Trindade	Count:748
416	Lat: -16.6667	Long: -49.2667	Name: Goiânia	Count:119396
417	Lat: -29.7167	Long: -52.4333	Name: Santa Cruz do Sul	Count:2328
418	Lat: -9.0833	Long: -35.25	Name: Maragogi	Count:471
419	Lat: -9.0833	Long: -62.4333	Name: Repartimento	Count:225
420	Lat: -14.2167	Long: -41.6667	Name: Brumado	Count:2194
421	Lat: -14.2167	Long: -42.7833	Name: Guanambi	Count:1517
422	Lat: -16.8333	Long: -40.9333	Name: Planalto	Count:174
423	Lat: -5.8333	Long: -47.0667	Name: Montes Altos	Count:892
424	Lat: -9.65	Long: -37.8	Name: Caninde de Sao Francisco	Count:30
425	Lat: -7.7833	Long: -38.6833	Name: Terra Nova	Count:30
426	Lat: -19.0333	Long: -46.15	Name: Arapua	Count:892
427	Lat: -22.9311	Long: -43.2532	Name: Andarai	Count:215
428	Lat: -21.25	Long: -45.5	Name: Tres Pontas	Count:102
429	Lat: -21.25	Long: -46.1333	Name: Alterosa	Count:164
430	Lat: -21.25	Long: -50.6333	Name: Guararapes	Count:369
431	Lat: -22.7	Long: -52.3667	Name: Santo Antonio do Caiua	Count:184
432	Lat: -22.7	Long: -42.0333	Name: Tamoios	Count:143
433	Lat: -22.7	Long: -46.7833	Name: Amparo	Count:2881
434	Lat: -5.5203	Long: -36.3836	Name: Pedro Avelino	Count:840
435	Lat: -29.85	Long: -51.1667	Name: Esteio	Count:3199
436	Lat: -9.8333	Long: -35.9	Name: Maceió	Count:215
437	Lat: -9.8333	Long: -39.4667	Name: Uaua	Count:728
438	Lat: -9.4	Long: -40.5	Name: Petrolina	Count:9065
439	Lat: -9.4	Long: -36.2333	Name: Vicosa	Count:174
440	Lat: -19.8167	Long: -40.2667	Name: Aracruz	Count:2092
441	Lat: -19.8167	Long: -43.9667	Name: Venda Nova	Count:410
442	Lat: -19.8167	Long: -41.4333	Name: Mutum	Count:10
443	Lat: -15.3167	Long: -42.0167	Name: Sao Joao do Paraiso	Count:184
444	Lat: -18.5333	Long: -50.5	Name: Quirinopolis	Count:512
445	Lat: -18.5333	Long: -41.25	Name: Itabirinha de Mantena	Count:399
446	Lat: -18.5333	Long: -42.75	Name: Sao Joao Evangelista	Count:328
447	Lat: -12.9167	Long: -39.25	Name: Muritiba	Count:307
448	Lat: -12.9167	Long: -39.1667	Name: Jaguaripe	Count:71
449	Lat: -7.5667	Long: -35.45	Name: Macaparana	Count:82
450	Lat: -7.5667	Long: -39.7	Name: Niteroi	Count:174
451	Lat: -19.75	Long: -40.4	Name: Joao Neiva	Count:133
452	Lat: -19.75	Long: -47.9167	Name: Uberaba	Count:13311
453	Lat: -19.75	Long: -44.3167	Name: Esmeraldas	Count:605
454	Lat: -27.4	Long: -51.2	Name: Campos Novos	Count:338
455	Lat: -5.1667	Long: -40.6667	Name: Crateus	Count:2922
456	Lat: -23.2	Long: -49.3833	Name: Piraju	Count:1722
457	Lat: -23.2	Long: -46.1167	Name: São José dos Campos	Count:174
458	Lat: -23.2	Long: -51.5833	Name: Astorga	Count:184
459	Lat: -23.2	Long: -46.8333	Name: Varzea Paulista	Count:3599
460	Lat: -23.2	Long: -47.2833	Name: Salto	Count:6040
461	Lat: -23.2	Long: -50.8167	Name: Jataizinho	Count:964
462	Lat: -2.8833	Long: -40.1167	Name: Acarau	Count:1681
463	Lat: -2.4333	Long: -54.7	Name: Santarém	Count:1415
464	Lat: -22.4528	Long: -43.4764	Name: Miguel Pereira	Count:820
465	Lat: -29.6833	Long: -51.05	Name: Novo Hamburgo	Count:2512
466	Lat: -29.6833	Long: -53.8	Name: Santa Maria	Count:11455
467	Lat: -29.6833	Long: -51.1333	Name: Novo Hamburgo	Count:20080
468	Lat: -5.5772	Long: -36.9075	Name: Acu	Count:30
469	Lat: -23.05	Long: -46.35	Name: Piracaia	Count:1733
470	Lat: -23.05	Long: -49.1667	Name: Cerqueira Cesar	Count:82
471	Lat: -10.25	Long: -43.7167	Name: Baixao do Damazio	Count:20
472	Lat: -7.1	Long: -35.2167	Name: Mari	Count:1794
473	Lat: -7.3667	Long: -35.2333	Name: Juripiranga	Count:246
474	Lat: -12.3667	Long: -40.6667	Name: Terra Nova	Count:92
475	Lat: -19.4833	Long: -44.3667	Name: Sete Lagoas	Count:10
476	Lat: -29.6667	Long: -52.8	Name: Candelaria	Count:287
477	Lat: -29.6667	Long: -50.5667	Name: Rolante	Count:440
478	Lat: -16.7167	Long: -43.8667	Name: Montes Claros	Count:9999
479	Lat: -16.7167	Long: -49.0833	Name: Senador Canedo	Count:2697
480	Lat: -12.7167	Long: -60.1167	Name: Vilhena	Count:246
481	Lat: -12.7167	Long: -44.5667	Name: Cocos	Count:615
482	Lat: -19.8333	Long: -45.4	Name: Bom Despacho	Count:194
483	Lat: -19.8333	Long: -43.1333	Name: Joao Monlevade	Count:1128
484	Lat: -8.15	Long: -34.95	Name: Guararapes	Count:6481
485	Lat: -8.15	Long: -36.3667	Name: Brejo da Madre de Deus	Count:666
486	Lat: -3.65	Long: -44.4	Name: Cantanhede	Count:369
487	Lat: -3.65	Long: -45.3667	Name: Santa Ines	Count:133
488	Lat: -21.3167	Long: -47.75	Name: Ribeirão Preto	Count:1199
489	Lat: -21.3167	Long: -49.5	Name: Urupes	Count:646
490	Lat: -21.3167	Long: -49.0667	Name: Itajobi	Count:389
491	Lat: -21.3167	Long: -47.5667	Name: Ribeirão Preto	Count:512
492	Lat: -22.8152	Long: -45.1892	Name: Guaratingueta	Count:8225
493	Lat: -1.2667	Long: -48.1833	Name: Ananindeua	Count:30
494	Lat: -2.4167	Long: -48.15	Name: Tome Acu	Count:810
495	Lat: -6.5333	Long: -39.5	Name: Jucas	Count:174
496	Lat: -28.0333	Long: -49.6167	Name: Urubici	Count:399
497	Lat: -12.1667	Long: -39.7333	Name: Ipira	Count:174
498	Lat: -18.25	Long: -43.6	Name: Diamantina	Count:410
499	Lat: -22.882	Long: -43.4668	Name: Bangu	Count:225
500	Lat: -20.3667	Long: -42.75	Name: Ponte Nova	Count:92
501	Lat: -20.3667	Long: -41.95	Name: Manhumirim	Count:215
502	Lat: -20.3667	Long: -40.6667	Name: Domingos Martins	Count:205
503	Lat: -29.9	Long: -50.2667	Name: Osorio	Count:2092
504	Lat: -17.7	Long: -42.5167	Name: Capelinha	Count:646
505	Lat: -23.1333	Long: -50.65	Name: Bandeirantes	Count:1938
506	Lat: -23.1333	Long: -54.2167	Name: Navirai	Count:451
507	Lat: -23.1333	Long: -46.4667	Name: Bom Jesus dos Perdoes	Count:297
508	Lat: -22.55	Long: -47.9	Name: Sao Pedro	Count:1158
509	Lat: -22.55	Long: -46.9167	Name: Silveiras	Count:51
510	Lat: -22.55	Long: -45.7833	Name: Paraisopolis	Count:697
511	Lat: -9.5	Long: -40.5	Name: Juazeiro	Count:451
512	Lat: -13.1167	Long: -42.3	Name: Rio do Pires	Count:1240
513	Lat: -21.9833	Long: -42.2667	Name: Cantagalo	Count:153
514	Lat: -21.9833	Long: -49.4833	Name: Pirajui	Count:225
515	Lat: -21.9833	Long: -49.9833	Name: Marília	Count:266
516	Lat: -21.9833	Long: -47.4167	Name: Pirassununga	Count:2451
517	Lat: -21.9833	Long: -44.9333	Name: Caxambu	Count:430
518	Lat: -11.3333	Long: -38.95	Name: Araci	Count:102
519	Lat: -11.3333	Long: -42.1333	Name: Uibai	Count:20
520	Lat: -14.8167	Long: -41.3833	Name: Sao Felipe	Count:830
521	Lat: -14.8167	Long: -39.0333	Name: Ilhéus	Count:338
522	Lat: -16.75	Long: -47.6	Name: Cristalina	Count:892
523	Lat: -22.6	Long: -46.7	Name: Serra Negra	Count:1722
524	Lat: -22.6	Long: -47.8833	Name: Aguas de Sao Pedro	Count:41
525	Lat: -22.6	Long: -46.9167	Name: Santo Antonio de Posse	Count:369
526	Lat: -22.6	Long: -46.5333	Name: Socorro	Count:1435
527	Lat: -22.6	Long: -48.7833	Name: Lencois Paulista	Count:1148
528	Lat: -22.8667	Long: -46.8	Name: Campinas	Count:1005
529	Lat: -22.8667	Long: -42.6	Name: Sampaio Correia	Count:276
530	Lat: -22.8667	Long: -51.1333	Name: Sao Tome	Count:112
531	Lat: -22.8667	Long: -48.4333	Name: Botucatu	Count:4532
532	Lat: -22.8667	Long: -52.5667	Name: Nova Aurora	Count:358
533	Lat: -28.4	Long: -54.9667	Name: Sao Luiz Gonzaga	Count:41
534	Lat: -18.2	Long: -49.7333	Name: Bom Jesus	Count:174
535	Lat: -23.5285	Long: -47.1353	Name: Sao Roque	Count:2440
536	Lat: -22.6333	Long: -54.8	Name: Caarapo	Count:492
537	Lat: -22.6333	Long: -47.2	Name: Cosmopolis	Count:3466
538	Lat: -27.2411	Long: -48.6314	Name: Tijucas	Count:1722
539	Lat: -20.05	Long: -40.6667	Name: Jetiba	Count:51
540	Lat: -20.05	Long: -47.7833	Name: Igarapava	Count:235
541	Lat: -20.05	Long: -44.2833	Name: Sao Joaquim de Bicas	Count:2461
542	Lat: -8.75	Long: -35.1	Name: Tamandare	Count:61
543	Lat: -8.75	Long: -37.3333	Name: Tupanatinga	Count:215
544	Lat: -20.4833	Long: -48.95	Name: Olimpia	Count:51
545	Lat: -20.2484	Long: -43.8063	Name: Itabirito	Count:1610
546	Lat: -23.7167	Long: -46.8333	Name: Itapecerica da Serra	Count:6266
547	Lat: -23.7167	Long: -46.4167	Name: Ribeirao Pires	Count:6532
548	Lat: -22.8333	Long: -47.6	Name: Rio das Pedras	Count:871
549	Lat: -22.8333	Long: -42.2167	Name: Iguaba Grande	Count:666
550	Lat: -22.8333	Long: -42.9667	Name: Rio de Janeiro	Count:235
551	Lat: -22.8333	Long: -45.6667	Name: Campos do Jordao	Count:615
552	Lat: -7.3333	Long: -47.4667	Name: Carolina	Count:246
553	Lat: -7.3333	Long: -35.3333	Name: Itabaiana	Count:338
554	Lat: -30.5	Long: -53.5	Name: Cacapava do Sul	Count:194
555	Lat: -10.65	Long: -36.9833	Name: Carmopolis	Count:410
556	Lat: -23.5041	Long: -47.6467	Name: Campina	Count:215
557	Lat: -22.3167	Long: -47.6167	Name: Sao Bento	Count:1599
558	Lat: -22.3167	Long: -49.0667	Name: Bauru	Count:19301
559	Lat: -29.95	Long: -51.0833	Name: Cachoeirinha	Count:5302
560	Lat: -29.95	Long: -51.1667	Name: Niteroi	Count:143
561	Lat: -4.9833	Long: -46.5833	Name: Sitio Novo	Count:430
562	Lat: -22.9605	Long: -43.3503	Name: Gardenia Azul	Count:153
563	Lat: -10.6667	Long: -62.3	Name: Ouro Preto do Oeste	Count:143
564	Lat: -22.7667	Long: -46.15	Name: Camanducaia	Count:215
565	Lat: -20.1	Long: -42.85	Name: Sem Peixe	Count:61
566	Lat: -20.1	Long: -40.5333	Name: Santa Leopoldina	Count:51
567	Lat: -23.3667	Long: -51.2167	Name: Caramuru	Count:153
568	Lat: -23.3667	Long: -48.1667	Name: Itapetininga	Count:205
569	Lat: -15.9333	Long: -50.1333	Name: Goias	Count:2471
570	Lat: -1.2833	Long: -50.4	Name: Santana	Count:307
571	Lat: -14.0167	Long: -39.25	Name: Arraial	Count:215
572	Lat: -20.1333	Long: -44.2167	Name: Brumadinho	Count:1394
573	Lat: -25.0833	Long: -50.15	Name: Ponta Grossa	Count:16973
574	Lat: -8	Long: -35.05	Name: Sao Lourenco da Mata	Count:1589
575	Lat: -15.85	Long: -58.4667	Name: Porto Esperidiao	Count:20
576	Lat: -15.6167	Long: -41.4	Name: Aguas Vermelhas	Count:123
577	Lat: -15.6167	Long: -42.55	Name: Rio Pardo de Minas	Count:1804
578	Lat: -22.914	Long: -43.182	Name: Lapa	Count:20
579	Lat: -25.5481	Long: -49.8931	Name: Boqueirao	Count:164
580	Lat: -22.9833	Long: -49.8667	Name: Ourinhos	Count:4338
581	Lat: -25.1667	Long: -49.3	Name: Rio Branco do Sul	Count:666
582	Lat: -20.2167	Long: -42.65	Name: Rio Casca	Count:102
583	Lat: -20.2167	Long: -50.9333	Name: Santa Fe do Sul	Count:840
584	Lat: -29	Long: -52.15	Name: Putinga	Count:174
585	Lat: -25.8167	Long: -48.5333	Name: Conjunto Habitacional Companhia de Habitacao do Parana II	Count:1312
586	Lat: -5.65	Long: -37.8	Name: Apodi	Count:779
587	Lat: -26.8833	Long: -48.65	Name: Itajaí	Count:22736
588	Lat: -26.8833	Long: -52.3833	Name: Xanxere	Count:471
589	Lat: -26.8833	Long: -52.2333	Name: Xanxere	Count:112
590	Lat: -9.9167	Long: -36.8333	Name: Girau do Ponciano	Count:82
591	Lat: -20.2667	Long: -50.55	Name: Jales	Count:123
592	Lat: -20.2667	Long: -50.2333	Name: Fernandopolis	Count:1425
593	Lat: -20.2667	Long: -40.4167	Name: Cariacica	Count:15106
594	Lat: -20.2667	Long: -44.3167	Name: Rio Manso	Count:471
595	Lat: -22.7986	Long: -43.3609	Name: Sao Joao de Meriti	Count:12655
596	Lat: -21.6	Long: -46.9	Name: Sao Jose do Rio Pardo	Count:707
597	Lat: -17.4	Long: -51.2333	Name: Montividiu	Count:20
598	Lat: -14.7667	Long: -43.9333	Name: Manga	Count:164
599	Lat: -22.9167	Long: -49.6167	Name: Santa Cruz do Rio Pardo	Count:102
600	Lat: -22.9167	Long: -45.4667	Name: Pindamonhangaba	Count:8307
601	Lat: -22.9167	Long: -42.8167	Name: Marica	Count:6255
602	Lat: -26.5833	Long: -53.5833	Name: Guaraciaba	Count:10
603	Lat: -25.05	Long: -51.55	Name: Turvo	Count:153
604	Lat: -4.6	Long: -41.2	Name: Cachoeira Grande	Count:82
605	Lat: -15.3667	Long: -42.6167	Name: Santo Antonio do Retiro	Count:215
606	Lat: -5.53	Long: -37.3031	Name: Caraubas	Count:153
607	Lat: -8.9886	Long: -48.0214	Name: Pedro Afonso	Count:102
608	Lat: -1.4167	Long: -47.8833	Name: Castanhal	Count:246
609	Lat: -1.4167	Long: -47.3167	Name: Santo Antonio	Count:82
610	Lat: -27.5	Long: -54.3667	Name: Doutor Mauricio Cardoso	Count:41
611	Lat: -27.5	Long: -48.6667	Name: Biguacu	Count:3702
612	Lat: -3.4	Long: -44.3333	Name: Itapecuru Mirim	Count:728
613	Lat: -3.4	Long: -39.0667	Name: Paracuru	Count:348
614	Lat: -1.3	Long: -48.4667	Name: Icoraci	Count:92
615	Lat: -1.3	Long: -47.9167	Name: Castanhal	Count:2399
616	Lat: -24.95	Long: -51.6167	Name: Boa Ventura	Count:41
617	Lat: -24.95	Long: -53.4667	Name: Cascavel	Count:23639
618	Lat: -9.1667	Long: -36.6833	Name: Bom Conselho	Count:697
619	Lat: -21.7667	Long: -52.1	Name: Presidente Epitacio	Count:625
620	Lat: -6.4667	Long: -35.4333	Name: Nova Cruz	Count:276
621	Lat: -19.9	Long: -43.8	Name: Sabara	Count:3476
622	Lat: -19.9	Long: -48.7	Name: Pirajuba	Count:112
623	Lat: -19.9	Long: -49.3667	Name: Itapagipe	Count:256
624	Lat: -19.9	Long: -43.6667	Name: Caete	Count:317
625	Lat: -23.335	Long: -50.2346	Name: Figueira	Count:205
626	Lat: -12.4333	Long: -39.2333	Name: Teixeira	Count:779
627	Lat: -12.4333	Long: -39.2167	Name: Santo Estevao	Count:205
628	Lat: -21.4167	Long: -41.35	Name: Sao Jose	Count:205
629	Lat: -21.4167	Long: -41.7	Name: Italva	Count:164
630	Lat: -21.4167	Long: -42.1833	Name: Miracema	Count:369
631	Lat: -26.1181	Long: -49.8023	Name: Mafra	Count:1774
632	Lat: -20.1833	Long: -44.7667	Name: Carmo do Cajuru	Count:153
633	Lat: -11.0142	Long: -48.505	Name: Brejinho de Nazare	Count:164
634	Lat: -7.25	Long: -41.6	Name: Serra	Count:194
635	Lat: -7.25	Long: -39.1333	Name: Missao Velha	Count:112
636	Lat: -7.25	Long: -36.4833	Name: Gurjao	Count:482
637	Lat: -1.7	Long: -48.9	Name: Abaetetuba	Count:348
638	Lat: -13.35	Long: -42.4833	Name: Botupora	Count:266
639	Lat: -8.1167	Long: -35.3	Name: Vitoria de Santo Antao	Count:1579
640	Lat: -8.1167	Long: -35.1	Name: Moreno	Count:3035
641	Lat: -8.1167	Long: -35.0167	Name: Jaboatao dos Guararapes	Count:35812
642	Lat: -27.9833	Long: -52.25	Name: Sertao	Count:297
643	Lat: -14.3333	Long: -49.1333	Name: Uruacu	Count:205
644	Lat: -20.2833	Long: -42.35	Name: Matipo	Count:564
645	Lat: -20.2833	Long: -45.5333	Name: Arcos	Count:943
646	Lat: -8.4897	Long: -48.3897	Name: Presidente Kennedy	Count:348
647	Lat: -12.9	Long: -38.7	Name: Salvador	Count:10
648	Lat: -21.8658	Long: -43.0097	Name: Mar de Espanha	Count:112
649	Lat: -8.4167	Long: -35.85	Name: Sao Joaquim do Monte	Count:92
650	Lat: -8.4167	Long: -36.9167	Name: Arcoverde	Count:369
651	Lat: -19.2667	Long: -41.9833	Name: Tarumirim	Count:307
652	Lat: -19.2667	Long: -40.3333	Name: Rio Bananal	Count:553
653	Lat: -28.8667	Long: -50.4833	Name: Picada	Count:205
654	Lat: -18.4	Long: -48.3667	Name: Antonio Carlos	Count:143
655	Lat: -19.9167	Long: -44.1	Name: Contagem	Count:35361
656	Lat: -19.9167	Long: -48.3833	Name: Conceicao das Alagoas	Count:123
657	Lat: -19.9167	Long: -43.1833	Name: Rio Piracicaba	Count:174
658	Lat: -19.9167	Long: -43.9333	Name: Belo Horizonte	Count:272133
659	Lat: -19.9167	Long: -46.8167	Name: Tapira	Count:30
660	Lat: -29.5833	Long: -51.3833	Name: Sao Sebastiao do Cai	Count:820
661	Lat: -29.5833	Long: -51.0833	Name: Dois Irmaos	Count:1025
662	Lat: -18.6833	Long: -49.5833	Name: Capinopolis	Count:235
663	Lat: -13.6	Long: -38.8833	Name: Santo	Count:1456
664	Lat: -26.4833	Long: -49.0667	Name: Jaraguá do Sul	Count:18613
665	Lat: -0.1333	Long: -67.0833	Name: Sao Gabriel da Cachoeira	Count:215
666	Lat: -15.0833	Long: -57.1833	Name: Barra do Bugres	Count:153
667	Lat: -23.7833	Long: -52.25	Name: Engenheiro Beltrao	Count:184
668	Lat: -23.7833	Long: -45.35	Name: Ilhabela	Count:523
669	Lat: -22.4661	Long: -43.8278	Name: Barra do Piraí	Count:1958
670	Lat: -7.8833	Long: -37.1167	Name: Monteiro	Count:1128
671	Lat: -7.8833	Long: -40.0833	Name: Ouricuri	Count:10
672	Lat: -6.7667	Long: -37	Name: Varzea	Count:974
673	Lat: -24.5	Long: -50.4	Name: Tibagi	Count:102
674	Lat: -24.5	Long: -47.8333	Name: Registro	Count:1005
675	Lat: -15.65	Long: -40.05	Name: Itarantim	Count:358
676	Lat: -15.65	Long: -38.95	Name: Canavieiras	Count:194
677	Lat: -15.65	Long: -56.1333	Name: Várzea Grande	Count:4686
678	Lat: -27.95	Long: -51.8	Name: Sananduva	Count:153
679	Lat: -7.4833	Long: -39	Name: Brejo Santo	Count:482
680	Lat: -7.4833	Long: -36.1167	Name: Boqueirao	Count:92
681	Lat: -25.44	Long: -49.1858	Name: Pinhais	Count:9024
682	Lat: -7.7167	Long: -39.6	Name: Granito	Count:41
683	Lat: -29.3667	Long: -51.1333	Name: Nova Petropolis	Count:379
684	Lat: -29.3667	Long: -50.8333	Name: Canela	Count:1938
685	Lat: -20.9	Long: -47.8833	Name: Brodosqui	Count:30
686	Lat: -20.9	Long: -51.3833	Name: Andradina	Count:1815
687	Lat: -20.9	Long: -43.3667	Name: Cipotanea	Count:717
688	Lat: -20.9	Long: -49.3167	Name: Sao Jose do Rio Preto	Count:348
689	Lat: -18.4167	Long: -49.2167	Name: Itumbiara	Count:687
690	Lat: -18.4167	Long: -46.4167	Name: Presidente Olegario	Count:307
691	Lat: -29.55	Long: -51.7667	Name: Lajeado	Count:61
692	Lat: -28.9833	Long: -49.4333	Name: Arroio do Silva	Count:287
693	Lat: -15.8333	Long: -47.9	Name: Guara	Count:2543
694	Lat: -15.8333	Long: -48.0564	Name: Taguatinga	Count:5938
695	Lat: -15.8333	Long: -47.8167	Name: Paranoa	Count:420
696	Lat: -17.2833	Long: -42.75	Name: Turmalina	Count:71
697	Lat: -22.0892	Long: -43.8272	Name: Rio Preto	Count:748
698	Lat: -23.0081	Long: -43.3404	Name: Barra da Tijuca	Count:133
699	Lat: -23	Long: -44.3	Name: Angra dos Reis	Count:3630
700	Lat: -23	Long: -46.85	Name: Itatiba	Count:8624
701	Lat: -23	Long: -51.2	Name: Lunardelli	Count:184
702	Lat: -23	Long: -53.4667	Name: Porto Barra do Ivinheima	Count:30
703	Lat: -20.45	Long: -45.4167	Name: Formiga	Count:1015
704	Lat: -20.45	Long: -52.8667	Name: Agua Clara	Count:41
705	Lat: -20.45	Long: -47.7333	Name: Sao Joaquim da Barra	Count:471
706	Lat: -20.45	Long: -54.6167	Name: Campo Grande	Count:41740
707	Lat: -20.45	Long: -48.0333	Name: Ipua	Count:133
708	Lat: -20.45	Long: -53.7667	Name: Ribas do Rio Pardo	Count:215
709	Lat: -20.45	Long: -47.5833	Name: Franca	Count:143
710	Lat: -19.8	Long: -40.85	Name: Itaguacu	Count:451
711	Lat: -19.8	Long: -45.6667	Name: Luz	Count:153
712	Lat: -23.4	Long: -50.3	Name: Santo Antonio da Platina	Count:82
713	Lat: -23.4	Long: -47	Name: Pirapora do Bom Jesus	Count:635
714	Lat: -23.4	Long: -45.8833	Name: Santa Branca	Count:748
715	Lat: -23.4	Long: -46.3333	Name: Arujá	Count:3333
716	Lat: -11.6833	Long: -37.6333	Name: Bonito	Count:41
717	Lat: -11.6833	Long: -41.7667	Name: Canarana	Count:1189
718	Lat: -29.9667	Long: -50.1333	Name: Tramandai	Count:235
719	Lat: -29.9667	Long: -51.6333	Name: Charqueadas	Count:1384
720	Lat: -29.9667	Long: -51.7167	Name: Sao Jeronimo	Count:297
721	Lat: -11.1333	Long: -42.1333	Name: Central	Count:20
722	Lat: -17.5667	Long: -52.5667	Name: Mineiros	Count:379
723	Lat: -15.5333	Long: -47.3333	Name: Formosa	Count:2245
724	Lat: -12.6406	Long: -47.7925	Name: Parana	Count:287
725	Lat: -28.5167	Long: -49.3167	Name: Urussanga	Count:430
726	Lat: -6.1333	Long: -37.4833	Name: Boa Vista	Count:133
727	Lat: -6.1333	Long: -36.8167	Name: Florania	Count:307
728	Lat: -7.5167	Long: -34.9	Name: Caapora	Count:564
729	Lat: -7.5167	Long: -39.7167	Name: Exu	Count:61
730	Lat: -7.5167	Long: -35.6833	Name: Aroeiras	Count:153
731	Lat: -7.5167	Long: -46.0333	Name: Balsas	Count:1702
732	Lat: -7.5167	Long: -35.3167	Name: Timbauba	Count:574
733	Lat: -21.0253	Long: -47.3744	Name: Altinopolis	Count:840
734	Lat: -21.5	Long: -44.9	Name: Luminarias	Count:20
735	Lat: -21.5	Long: -47.55	Name: Sao Simao	Count:276
736	Lat: -21.5	Long: -47.6833	Name: Luis Antonio	Count:123
737	Lat: -24.65	Long: -53.3333	Name: Corbelia	Count:82
738	Lat: -22.95	Long: -47.0167	Name: Valinhos	Count:15485
739	Lat: -22.95	Long: -47.3333	Name: Monte Mor	Count:1435
740	Lat: -22.95	Long: -46.5667	Name: Braganca Paulista	Count:7476
741	Lat: -25.8712	Long: -49.4982	Name: Quitandinha	Count:225
742	Lat: -3.5833	Long: -39.9833	Name: Miraima	Count:1261
743	Lat: -3.5833	Long: -40.1833	Name: Raposa (1)	Count:461
744	Lat: -4.9667	Long: -39.0167	Name: Quixada	Count:358
745	Lat: -17.3	Long: -49.0167	Name: Piracanjuba	Count:276
746	Lat: -10.5167	Long: -42.25	Name: Nova	Count:1384
747	Lat: -10.5167	Long: -40.3333	Name: Campo Formoso	Count:287
748	Lat: -18.4667	Long: -47.2167	Name: Coromandel	Count:933
749	Lat: -18.0833	Long: -42.5833	Name: Santa Maria do Suacui	Count:30
750	Lat: -18.0833	Long: -39.5667	Name: Mucuri	Count:205
751	Lat: -10.3833	Long: -38.3333	Name: Cicero Dantas	Count:153
752	Lat: -8.35	Long: -34.9333	Name: Cabo de Santo Agostinho	Count:6594
753	Lat: -8.35	Long: -36.5667	Name: Belo Jardim	Count:328
754	Lat: -14.2833	Long: -39.85	Name: Itagiba	Count:246
755	Lat: -5.9561	Long: -36.6528	Name: Santana do Matos	Count:348
756	Lat: -23.6494	Long: -47.5715	Name: Salto de Pirapora	Count:584
757	Lat: -26.0167	Long: -50.0833	Name: Vera Cruz	Count:451
758	Lat: -22.3758	Long: -43.1314	Name: Itaipava	Count:82
759	Lat: -7.9	Long: -34.8833	Name: Abreu e Lima	Count:1579
760	Lat: -12.6817	Long: -55.6995	Name: Sorriso	Count:738
761	Lat: -23.45	Long: -46.9167	Name: Santana de Parnaiba	Count:15557
762	Lat: -9.2333	Long: -35.35	Name: Tatuamunha	Count:3743
763	Lat: -17.8833	Long: -51.7167	Name: Jatai	Count:881
764	Lat: -26.6	Long: -52.35	Name: Clevelandia	Count:71
765	Lat: -26.6	Long: -49.0167	Name: Jaraguá do Sul	Count:41
766	Lat: -26.8667	Long: -51.9667	Name: Ponte Serrada	Count:82
767	Lat: -12.2	Long: -38.2	Name: Galhardo	Count:71
768	Lat: -12.2	Long: -38.8833	Name: Feira de Santana	Count:892
769	Lat: -8.1833	Long: -72.05	Name: Progresso	Count:215
770	Lat: -19.7333	Long: -50.1833	Name: Iturama	Count:194
771	Lat: -11.2667	Long: -37.4333	Name: Estancia	Count:492
772	Lat: -11.2667	Long: -37.7833	Name: Itabaianinha	Count:123
773	Lat: -16.9667	Long: -48.95	Name: Bela Vista de Goias	Count:328
774	Lat: -19.5833	Long: -44.1167	Name: Matozinhos	Count:133
775	Lat: -19.5833	Long: -42.6667	Name: Timoteo	Count:605
776	Lat: -19.5833	Long: -46.9167	Name: Araxá	Count:2933
777	Lat: -27.5167	Long: -48.7833	Name: Forquilha	Count:276
778	Lat: -5.3833	Long: -43.4833	Name: Pedreira	Count:687
779	Lat: -5.3833	Long: -44.3333	Name: Presidente Dutra	Count:1056
780	Lat: -22.9145	Long: -43.2255	Name: Maracana	Count:82
781	Lat: -22.7403	Long: -47.3344	Name: Americana	Count:15609
782	Lat: -20.1167	Long: -40.3	Name: Serra	Count:42140
783	Lat: -20.1167	Long: -50.2167	Name: Fernandopolis	Count:123
784	Lat: -29.65	Long: -51.1833	Name: Estancia Velha	Count:1476
785	Lat: -29.65	Long: -50.7833	Name: Taquara	Count:2020
786	Lat: -7.05	Long: -35.6333	Name: Alagoa Nova	Count:2225
787	Lat: -8.4833	Long: -35.7333	Name: Bonito	Count:1199
788	Lat: -8.4833	Long: -36.7833	Name: Alagoinha	Count:1363
789	Lat: -8.4833	Long: -36.0667	Name: Altinho	Count:1240
790	Lat: -23.3833	Long: -49.5	Name: Fartura	Count:92
791	Lat: -23.3833	Long: -52.8	Name: Guaporema	Count:738
792	Lat: -23.3833	Long: -45.65	Name: Paraibuna	Count:215
793	Lat: -23.3833	Long: -51.45	Name: Arapongas	Count:3876
794	Lat: -23.3833	Long: -48.7167	Name: Paranapanema	Count:225
795	Lat: -22.4172	Long: -44.2861	Name: Porto Real	Count:707
796	Lat: -26.8922	Long: -49.2239	Name: Indaial	Count:1466
797	Lat: -26.9333	Long: -50.7	Name: Lebon Regis	Count:317
798	Lat: -26.9333	Long: -52.5167	Name: Chapecó	Count:276
799	Lat: -26.9333	Long: -48.9667	Name: Gaspar	Count:3394
800	Lat: -4.2167	Long: -56.0167	Name: Itaituba	Count:1333
801	Lat: -22.3	Long: -48.55	Name: Jaú	Count:3712
802	Lat: -22.3	Long: -44.95	Name: Itanhandu	Count:758
803	Lat: -22.3	Long: -45.3833	Name: Itajuba	Count:399
804	Lat: -24.1	Long: -46.6167	Name: Mongagua	Count:2851
805	Lat: -27.3667	Long: -53.4	Name: Frederico Westphalen	Count:410
806	Lat: -9.9333	Long: -36.4833	Name: Junqueiro	Count:1466
807	Lat: -9.9333	Long: -36.5667	Name: Sao Sebastiao	Count:215
808	Lat: -9.9333	Long: -63.0667	Name: Ariquemes	Count:923
809	Lat: -18.2333	Long: -47.1	Name: Chapadao	Count:451
810	Lat: -18.2333	Long: -47.8333	Name: Ouvidor	Count:164
811	Lat: -8.0167	Long: -34.85	Name: Olinda	Count:23803
812	Lat: -8.0167	Long: -34.9667	Name: Camaragibe	Count:6420
813	Lat: -8.0167	Long: -35.2833	Name: Gloria do Goita	Count:779
814	Lat: -8.0167	Long: -36.0667	Name: Toritama	Count:1271
815	Lat: -23.3226	Long: -46.5869	Name: Mairiporã	Count:5148
816	Lat: -2.9667	Long: -39.9833	Name: Catarina	Count:851
817	Lat: -2.9667	Long: -47.4833	Name: Paragominas	Count:1517
818	Lat: -21.0833	Long: -48.65	Name: Pirangi	Count:338
819	Lat: -21.0833	Long: -47.05	Name: Itamogi	Count:71
820	Lat: -21.0833	Long: -45.0833	Name: Perdoes	Count:133
821	Lat: -21.0833	Long: -45.5667	Name: Boa Esperanca	Count:194
822	Lat: -11.55	Long: -41.15	Name: Morro do Chapeu	Count:266
823	Lat: -11.55	Long: -39.2667	Name: Conceicao do Coite	Count:266
824	Lat: -20.0667	Long: -49.9	Name: Cardoso	Count:256
825	Lat: -20.0667	Long: -44.3	Name: Igarape	Count:1046
826	Lat: -20.0667	Long: -44.5667	Name: Itauna	Count:2112
827	Lat: -9.7833	Long: -36.0833	Name: Sao Miguel dos Campos	Count:1384
828	Lat: -20.465	Long: -46.9578	Name: Cassia	Count:2471
829	Lat: -25.0167	Long: -50.5833	Name: Ipiranga	Count:1056
830	Lat: -25.0167	Long: -53.5667	Name: Santa Teresa	Count:30
831	Lat: -22.85	Long: -47.25	Name: Hortolândia	Count:18306
832	Lat: -22.85	Long: -42.1	Name: Sao Pedro da Aldeia	Count:1302
833	Lat: -22.85	Long: -46.3167	Name: Extrema	Count:1446
834	Lat: -22.6167	Long: -46.3667	Name: Socorro	Count:41
835	Lat: -22.6167	Long: -46.0667	Name: Cambui	Count:358
836	Lat: -28.15	Long: -54.75	Name: Cerro Largo	Count:30
837	Lat: -6.65	Long: -35.7833	Name: Cacimba de Dentro	Count:564
838	Lat: -18.45	Long: -41.8	Name: Jampruca	Count:369
839	Lat: -22.8833	Long: -42.0167	Name: Cabo Frio	Count:6840
840	Lat: -22.8833	Long: -42.3333	Name: Araruama	Count:2871
841	Lat: -22.7492	Long: -47.4136	Name: Santa Barbara d'Oeste	Count:3948
842	Lat: -21.8	Long: -54.55	Name: Rio Brilhante	Count:1210
843	Lat: -21.8	Long: -46.5667	Name: Poços de Caldas	Count:2635
844	Lat: -25.6	Long: -49.6167	Name: Campo Largo	Count:328
845	Lat: -20.0859	Long: -43.7903	Name: Belo Horizonte	Count:717
846	Lat: -20.7333	Long: -47.75	Name: Nuporanga	Count:225
847	Lat: -20.7333	Long: -48.9	Name: Olimpia	Count:2020
848	Lat: -20.7333	Long: -48.5833	Name: Barretos	Count:184
849	Lat: -20.7333	Long: -42.0333	Name: Carangola	Count:82
850	Lat: -20.7333	Long: -48.0667	Name: Morro Agudo	Count:440
851	Lat: -8.7667	Long: -63.9	Name: Porto Velho	Count:11404
852	Lat: -23.9667	Long: -46.3833	Name: Sao Vicente	Count:16603
853	Lat: -23.9667	Long: -48.8667	Name: Itapeva	Count:625
854	Lat: -22.5833	Long: -44.9	Name: Cruzeiro	Count:20
855	Lat: -22.5833	Long: -47.15	Name: Artur Nogueira	Count:1989
856	Lat: -22.5833	Long: -47.5333	Name: Iracemapolis	Count:1097
857	Lat: -8.1333	Long: -35.8667	Name: Caruaru	Count:41
858	Lat: -10.3	Long: -36.5833	Name: Penedo	Count:758
859	Lat: -3.8	Long: -40.0167	Name: Sao Paulo	Count:440
860	Lat: -23.5667	Long: -46.7833	Name: Osasco	Count:56764
861	Lat: -23.3467	Long: -47.8484	Name: Tatuí	Count:2574
862	Lat: -28.2	Long: -52.6333	Name: Passo Fundo	Count:112
863	Lat: -22.5167	Long: -43.5	Name: Bonfim	Count:338
864	Lat: -22.5167	Long: -43.9833	Name: Pinheiral	Count:420
865	Lat: -22.5167	Long: -52.1667	Name: Teodoro Sampaio	Count:317
866	Lat: -22.5167	Long: -48.6833	Name: Macatuba	Count:102
867	Lat: -22.5167	Long: -48.5667	Name: Igaracu do Tiete	Count:123
868	Lat: -5.6333	Long: -35.6667	Name: Poco Branco	Count:256
869	Lat: -5.6333	Long: -35.4333	Name: Ceara Mirim	Count:943
870	Lat: -23.7913	Long: -50.0575	Name: Pinhalao	Count:71
871	Lat: -20.35	Long: -49.2	Name: Icem	Count:523
872	Lat: -20.35	Long: -41.6333	Name: Irupi	Count:184
873	Lat: -20.35	Long: -41.5333	Name: Iuna	Count:779
874	Lat: -23.1167	Long: -51.55	Name: Jaguapita	Count:51
875	Lat: -23.1167	Long: -48.6	Name: Itatinga	Count:30
876	Lat: -23.1167	Long: -49.0333	Name: Avare	Count:123
877	Lat: -7.8	Long: -45.5	Name: Abreu	Count:20
878	Lat: -10.9833	Long: -45.55	Name: Santa Luzia	Count:676
879	Lat: -10.9833	Long: -37.3	Name: Itaporanga d'Ajuda	Count:1907
880	Lat: -20.3833	Long: -43.5	Name: Ouro Preto	Count:1230
881	Lat: -20.3833	Long: -40.5	Name: Viana	Count:2204
882	Lat: -20.3833	Long: -47.6167	Name: Franca	Count:61
883	Lat: -20.3833	Long: -51.3333	Name: Ilha Solteira	Count:215
884	Lat: -20.3833	Long: -43.4167	Name: Mariana	Count:2256
885	Lat: -10.2167	Long: -36.85	Name: Propria	Count:861
886	Lat: -24.8333	Long: -49.25	Name: Cerro Azul	Count:123
887	Lat: -13.6569	Long: -59.7889	Name: Comodoro	Count:92
888	Lat: -5.4667	Long: -35.55	Name: Maxaranguape	Count:1097
889	Lat: -5.4667	Long: -35.3667	Name: Sao Miguel	Count:246
890	Lat: -27.3	Long: -50.6	Name: Curitibanos	Count:656
891	Lat: -15.95	Long: -55.55	Name: Palmeira	Count:533
892	Lat: -15.95	Long: -44.8667	Name: Sao Francisco	Count:10
893	Lat: -23.2333	Long: -51.25	Name: Cambe	Count:4840
894	Lat: -23.2333	Long: -45.3333	Name: Sao Luis do Paraitinga	Count:399
895	Lat: -8.0667	Long: -39.1	Name: Salgueiro	Count:71
896	Lat: -5.7833	Long: -43.25	Name: Estreito	Count:1035
897	Lat: -5.7833	Long: -35.2167	Name: Natal	Count:99930
898	Lat: -25.4167	Long: -49.25	Name: Curitiba	Count:349378
899	Lat: -25.4167	Long: -52.4167	Name: Laranjeiras do Sul	Count:92
900	Lat: -20.4667	Long: -45.8	Name: Piui	Count:61
901	Lat: -20.4667	Long: -55.8	Name: Aquidauana	Count:266
902	Lat: -20.4667	Long: -50.8833	Name: Aparecida d'Oeste	Count:389
903	Lat: -20.4667	Long: -45.1167	Name: Itapecerica	Count:92
904	Lat: -20.4667	Long: -47.7333	Name: Sao Joaquim da Barra	Count:71
905	Lat: -20.4667	Long: -44.2333	Name: Piedade dos Gerais	Count:184
906	Lat: -20.4667	Long: -41.4167	Name: Muniz Freire	Count:194
907	Lat: -20.4667	Long: -49.7833	Name: Votuporanga	Count:82
908	Lat: -25.4054	Long: -48.882	Name: Marques	Count:51
909	Lat: -29.25	Long: -52.3	Name: Progresso	Count:20
910	Lat: -29.25	Long: -51.8833	Name: Encantado	Count:92
911	Lat: -29.25	Long: -51.5333	Name: Garibaldi	Count:615
912	Lat: -4.25	Long: -42.3	Name: Barras	Count:143
913	Lat: -25.0667	Long: -53.25	Name: Salto	Count:61
914	Lat: -30.7	Long: -52.1167	Name: Dom Feliciano	Count:82
915	Lat: -11.2833	Long: -61.9167	Name: Presidente Medici	Count:30
916	Lat: -26.1333	Long: -53.0167	Name: Francisco Beltrao	Count:307
917	Lat: -24.2833	Long: -47.2333	Name: Pedro de Toledo	Count:933
918	Lat: -24.2833	Long: -47.4667	Name: Miracatu	Count:399
919	Lat: -24.2833	Long: -53.8333	Name: Palotina	Count:984
920	Lat: -24.2833	Long: -52.0333	Name: Aguas de Jurema	Count:123
921	Lat: -20.0167	Long: -45.55	Name: Lagoa da Prata	Count:174
922	Lat: -20.0167	Long: -45.9667	Name: Bambui	Count:71
923	Lat: -20.0167	Long: -44.4667	Name: Azurita	Count:297
924	Lat: -5.45	Long: -37.5167	Name: Dix-sept Rosado	Count:71
925	Lat: -21.85	Long: -45.3	Name: Cambuquira	Count:133
926	Lat: -21.85	Long: -47.4667	Name: Porto Ferreira	Count:738
927	Lat: -23.4799	Long: -52.6972	Name: Indianopolis	Count:758
928	Lat: 0.7	Long: -51.4	Name: Colonia Agricola do Matapi	Count:112
929	Lat: -6.4	Long: -38.85	Name: Ico	Count:215
930	Lat: -6.4	Long: -48.5333	Name: Sao Geraldo do Araguaia	Count:317
931	Lat: -10.2333	Long: -37.4167	Name: Nossa Senhora da Gloria	Count:225
932	Lat: -26.2167	Long: -51.0833	Name: Uniao da Vitoria	Count:974
933	Lat: -26.2167	Long: -52.6667	Name: Pato Branco	Count:1876
934	Lat: -24.42	Long: -53.5214	Name: Assis Chateaubriand	Count:225
935	Lat: -11.4667	Long: -41.4333	Name: America Dourada	Count:923
936	Lat: -2.0167	Long: -49.25	Name: Pena	Count:153
937	Lat: -2.0167	Long: -44.7167	Name: Cururupu	Count:1097
938	Lat: -22.7472	Long: -43.7169	Name: Seropedica	Count:1476
939	Lat: -22.4333	Long: -45.45	Name: Itajuba	Count:1517
940	Lat: -22.4333	Long: -46.95	Name: Mogi Mirim	Count:6543
941	Lat: -22.4333	Long: -47.7167	Name: Ipeuna	Count:143
942	Lat: -22.4333	Long: -46.8333	Name: Itapira	Count:3076
943	Lat: -22.4333	Long: -46.5667	Name: Monte Siao	Count:225
944	Lat: -26.8	Long: -52.95	Name: Pinhalzinho	Count:20
945	Lat: -26.8	Long: -49.4167	Name: Benedito Novo	Count:276
946	Lat: -15.2	Long: -59.3667	Name: Pontes e Lacerda	Count:71
947	Lat: -15.2	Long: -56.3667	Name: Acorizal	Count:61
948	Lat: -15.2	Long: -39.5333	Name: Jussari	Count:102
949	Lat: -6.6833	Long: -36.65	Name: Parelhas	Count:256
950	Lat: -6.6833	Long: -44.2833	Name: Jucara	Count:20
951	Lat: -11.3167	Long: -38.25	Name: Itapicuru	Count:933
952	Lat: -15.6333	Long: -47.8167	Name: Sobradinho	Count:4338
953	Lat: -9.8	Long: -36.35	Name: Campo Alegre	Count:656
954	Lat: -22.5617	Long: -47.4028	Name: Limeira	Count:24921
955	Lat: -24.5667	Long: -54.0667	Name: Marechal Candido Rondon	Count:328
956	Lat: -10.0333	Long: -44.2833	Name: Curimata	Count:184
957	Lat: -3.8833	Long: -40.3833	Name: Sobral	Count:1405
958	Lat: -3.8833	Long: -38.6667	Name: Maranguape	Count:1876
959	Lat: -27.7833	Long: -52.7833	Name: Sarandi	Count:61
960	Lat: -21.5167	Long: -48.3833	Name: Matao	Count:194
961	Lat: -5.7667	Long: -35.3333	Name: Sao Goncalo do Amarante	Count:1876
962	Lat: -19.35	Long: -45.9333	Name: Campos	Count:205
963	Lat: -5.3667	Long: -47.2833	Name: Imperatriz	Count:102
964	Lat: -0.9333	Long: -47.3833	Name: Santarem Novo	Count:61
965	Lat: -21.6667	Long: -49.75	Name: Lins	Count:728
966	Lat: -21.6667	Long: -53.9	Name: Rio Branco	Count:194
967	Lat: -24.7167	Long: -47.55	Name: Iguape	Count:717
968	Lat: -24.7167	Long: -47.8833	Name: Pariquera Acu	Count:174
969	Lat: -27.8333	Long: -52.2667	Name: Erechim	Count:102
970	Lat: -20.9333	Long: -48.4667	Name: Bebedouro	Count:1271
971	Lat: -20.9333	Long: -49.4667	Name: Bady Bassitt	Count:348
972	Lat: -20.9333	Long: -49.2167	Name: Sao Jose do Rio Preto	Count:2779
973	Lat: -24.3	Long: -52.5333	Name: Mambore	Count:61
974	Lat: -8.45	Long: -35.95	Name: Agrestina	Count:215
975	Lat: -11.5667	Long: -39.45	Name: Conceicao do Coite	Count:30
976	Lat: -20.0333	Long: -44.15	Name: Sarzedo	Count:1374
977	Lat: -20.0333	Long: -40.7	Name: Santa Maria	Count:3979
978	Lat: -20.0333	Long: -42.8667	Name: Samambaia	Count:1199
979	Lat: -20.0333	Long: -48.9167	Name: Frutal	Count:51
980	Lat: -20.0333	Long: -44.0667	Name: Ibirite	Count:5455
981	Lat: -23.6051	Long: -47.0268	Name: Vargem Grande Paulista	Count:2892
982	Lat: -21.9639	Long: -43.3131	Name: Simao Pereira	Count:71
983	Lat: -26.25	Long: -53.6364	Name: Barracao	Count:92
984	Lat: -26.25	Long: -51.0833	Name: Porto Uniao	Count:338
985	Lat: -12.775	Long: -47.2561	Name: Monte Alegre	Count:153
986	Lat: -25.7	Long: -52.7333	Name: Sulina	Count:82
987	Lat: -25.7	Long: -49.5333	Name: Araucária	Count:256
988	Lat: -10.7833	Long: -51	Name: Porto Velho	Count:215
989	Lat: -27.2181	Long: -49.6436	Name: Rio do Sul	Count:2994
990	Lat: -19.0167	Long: -57.65	Name: Corumbá	Count:307
991	Lat: -19.0167	Long: -43.4167	Name: Conceicao do Mato Dentro	Count:194
992	Lat: -19.0167	Long: -40.5333	Name: Sao Gabriel	Count:656
993	Lat: -6.7	Long: -34.9333	Name: Baia da Traicao	Count:153
994	Lat: -25.7658	Long: -49.7178	Name: Lapa	Count:717
995	Lat: -12.7333	Long: -38.6167	Name: Madre de Deus	Count:656
996	Lat: -12.7333	Long: -39.2167	Name: Touro	Count:399
997	Lat: -12.7333	Long: -41.8333	Name: Boa Vista	Count:143
998	Lat: -20.1667	Long: -47.7	Name: Igarapava	Count:112
999	Lat: -20.1667	Long: -42.5167	Name: Sao Pedro dos Ferros	Count:30
1000	Lat: -20.1667	Long: -42.2667	Name: Matipo	Count:30
1001	Lat: -22.9116	Long: -43.2005	Name: Cidade Nova	Count:30
1002	Lat: -23.6877	Long: -49.8295	Name: Siqueira Campos	Count:51
1003	Lat: -9.9667	Long: -67.8	Name: Rio Branco	Count:8276
1004	Lat: -29.3333	Long: -53.1	Name: Arroio do Tigre	Count:215
1005	Lat: -21.4333	Long: -45.95	Name: Alfenas	Count:646
1006	Lat: -4.8358	Long: -37.2508	Name: Tibau	Count:1015
1007	Lat: -9.7	Long: -36.3	Name: Anadia	Count:523
1008	Lat: -9.7	Long: -37.35	Name: Palestina	Count:1579
1009	Lat: -26.7333	Long: -49.2667	Name: Rio dos Cedros	Count:1005
1010	Lat: -23.5333	Long: -45.85	Name: Salesopolis	Count:379
1011	Lat: -23.5333	Long: -51.7	Name: Mandaguari	Count:707
1012	Lat: -23.5333	Long: -46.3667	Name: Ferraz de Vasconcelos	Count:4276
1013	Lat: -23.5333	Long: -46.3333	Name: Suzano	Count:24387
1014	Lat: -13.1333	Long: -39.0167	Name: Bernardo	Count:789
1015	Lat: -15.3	Long: -49.1167	Name: Goianesia	Count:851
1016	Lat: -15.3	Long: -49.5667	Name: Rialma	Count:1210
1017	Lat: -2.55	Long: -44.05	Name: Sao Jose de Ribamar	Count:1815
1018	Lat: -29.5667	Long: -50.8	Name: Igrejinha	Count:430
1019	Lat: -23.1153	Long: -50.1826	Name: Barra do Jacare	Count:92
1020	Lat: -22.9228	Long: -43.9456	Name: Vila Muriqui	Count:174
1021	Lat: -12.75	Long: -40.2167	Name: Iacu	Count:594
1022	Lat: -29.1167	Long: -49.6667	Name: Sombrio	Count:738
1023	Lat: -20.65	Long: -49.9	Name: Sebastianopolis do Sul	Count:20
1024	Lat: -20.65	Long: -50.3667	Name: General Salgado	Count:123
1025	Lat: -20.65	Long: -41.9167	Name: Espera Feliz	Count:205
1026	Lat: -6.1167	Long: -35.4833	Name: Lagoa Salgada	Count:2389
1027	Lat: -6.1167	Long: -38.1667	Name: Pau dos Ferros	Count:1169
1028	Lat: -23.4132	Long: -46.0377	Name: Guararema	Count:1046
1029	Lat: -15.9833	Long: -54.95	Name: Jaciara	Count:10
1030	Lat: -15.9833	Long: -58.6167	Name: Cerro Branco	Count:246
1031	Lat: -18.6667	Long: -41.4	Name: Mendes Pimentel	Count:164
1032	Lat: -18.6667	Long: -40.8	Name: Paulista	Count:164
1033	Lat: -18.6667	Long: -43.1	Name: Sabinopolis	Count:266
1034	Lat: -8.0833	Long: -37.2667	Name: Sertania	Count:440
1035	Lat: -8.0833	Long: -39.5667	Name: Parnamirim	Count:143
1036	Lat: -19.9333	Long: -43.4	Name: Santa Barbara	Count:153
1037	Lat: -19.9333	Long: -42.7	Name: Sao Jose do Goiabal	Count:82
1038	Lat: -19.9333	Long: -43.4667	Name: Barao de Cocais	Count:256
1039	Lat: -19.9333	Long: -45.0667	Name: Divinopolis	Count:205
1040	Lat: -29.1689	Long: -51.1785	Name: Caxias do Sul	Count:26090
1041	Lat: -22.5261	Long: -43.7247	Name: Mendes	Count:215
1042	Lat: -29.3	Long: -51.5	Name: Carlos Barbosa	Count:256
1043	Lat: -29.2333	Long: -51.35	Name: Farroupilha	Count:3599
1044	Lat: -29.2333	Long: -53.6833	Name: Julio de Castilhos	Count:256
1045	Lat: -7.2833	Long: -35.6	Name: Inga	Count:20
1046	Lat: -3.7333	Long: -43.35	Name: Chapadinha	Count:1476
1047	Lat: -3.7333	Long: -40.9833	Name: Tiangua	Count:2092
1048	Lat: -20.7	Long: -41.9333	Name: Caiana	Count:112
1049	Lat: -1.3667	Long: -48.25	Name: Benevides	Count:266
1050	Lat: -1.3667	Long: -48.3833	Name: Ananindeua	Count:7794
1051	Lat: -22.6894	Long: -45.7322	Name: Sao Bento do Sapucai	Count:184
1052	Lat: -23.2942	Long: -50.075	Name: Santo Antonio da Platina	Count:133
1053	Lat: -23.1002	Long: -47.7144	Name: Tiete	Count:810
1054	Lat: -7.95	Long: -36.2	Name: Santa Cruz do Capibaribe	Count:1015
1055	Lat: -7.95	Long: -34.8833	Name: Paulista	Count:24839
1056	Lat: -3.3167	Long: -41.4167	Name: Cocal	Count:343707
1057	Lat: -28.2167	Long: -51.5333	Name: Lagoa Vermelha	Count:71
1058	Lat: -8.8333	Long: -36.0333	Name: Quipapa	Count:153
1059	Lat: -16.3333	Long: -48.9667	Name: Anápolis	Count:13209
1060	Lat: -16.4333	Long: -41	Name: Jequitinhonha	Count:51
1061	Lat: -16.4333	Long: -39.0833	Name: Porto Seguro	Count:2697
1062	Lat: -17.8167	Long: -41.8167	Name: Itambacuri	Count:123
1063	Lat: -7.1833	Long: -39.7333	Name: Santana do Cariri	Count:399
1064	Lat: -16.5333	Long: -42.1167	Name: Ouro Fino	Count:3886
1065	Lat: -13.9167	Long: -42.85	Name: Matina	Count:2133
1066	Lat: -28.2667	Long: -52.4	Name: Passo Fundo	Count:8850
1067	Lat: -28.2667	Long: -49.0167	Name: Armazem	Count:502
1068	Lat: -7.0667	Long: -40.3833	Name: Campos Sales	Count:61
1069	Lat: -7.0667	Long: -35.7667	Name: Alagoa Nova	Count:1722
1070	Lat: -12.6333	Long: -38.9667	Name: Sao Felix	Count:287
1071	Lat: -12.6333	Long: -41.0333	Name: Vera Cruz	Count:174
1072	Lat: -21.75	Long: -41.3	Name: Campos	Count:13219
1073	Lat: -21.75	Long: -49.3833	Name: Pongai	Count:102
1074	Lat: -21.75	Long: -50.9667	Name: Lucelia	Count:41
1075	Lat: -21.75	Long: -48.8167	Name: Ibitinga	Count:205
1076	Lat: -32.5667	Long: -53.3833	Name: Jaguarao	Count:328
1077	Lat: -14.8	Long: -39.2667	Name: Itabuna	Count:2369
1078	Lat: -25.4	Long: -52.2333	Name: Laranjeiras do Sul	Count:51
1079	Lat: -21.2	Long: -48.15	Name: Barrinha	Count:399
1080	Lat: -21.2	Long: -41.9	Name: Itaperuna	Count:912
1081	Lat: -21.2	Long: -42.8667	Name: Rodeiro	Count:348
1082	Lat: -21.2	Long: -41.4667	Name: Ponte de Itabapoana	Count:276
1083	Lat: -21.2	Long: -50.4167	Name: Aracatuba	Count:4840
1084	Lat: -21.2	Long: -49.5667	Name: Urupes	Count:276
1085	Lat: -19.6333	Long: -44.05	Name: Pedro Leopoldo	Count:1087
1086	Lat: -19.6333	Long: -43.8833	Name: Lagoa Santa	Count:2389
1087	Lat: -29.35	Long: -49.7333	Name: Torres	Count:758
1088	Lat: -24.1167	Long: -49.3333	Name: Itarare	Count:307
1089	Lat: -7.8667	Long: -35.45	Name: Limoeiro	Count:799
1090	Lat: -18.7167	Long: -40.4	Name: Nova Venecia	Count:1035
1091	Lat: -18.7167	Long: -47.4833	Name: Monte Carmelo	Count:133
1092	Lat: -26.925	Long: -49.7918	Name: Witmarsum	Count:61
1093	Lat: -17.8333	Long: -40.35	Name: Nanuque	Count:102
1094	Lat: -17.8333	Long: -42.0833	Name: Malacacheta	Count:112
1095	Lat: -3.0333	Long: -41.25	Name: Chaval	Count:328
1096	Lat: -6.0833	Long: -35.25	Name: Sao Jose de Mipibu	Count:1876
1097	Lat: -6.0833	Long: -42.7333	Name: Angical do Piaui	Count:143
1098	Lat: -19.3167	Long: -46.05	Name: Sao Gotardo	Count:246
1099	Lat: -12.5667	Long: -41.3833	Name: Lencois	Count:225
1100	Lat: -12.5667	Long: -41.8167	Name: Coronel	Count:123
1101	Lat: -6.0333	Long: -37.0167	Name: Jucurutu	Count:246
1102	Lat: -29.7667	Long: -51.15	Name: São Leopoldo	Count:15229
1103	Lat: -29.7667	Long: -55.7667	Name: Alegrete	Count:51
1104	Lat: -29.7667	Long: -50.0167	Name: Capao da Canoa	Count:1528
1105	Lat: -3.4667	Long: -41.5667	Name: Cocal	Count:410
1106	Lat: -20.25	Long: -42.0333	Name: Manhuacu	Count:143
1107	Lat: -23.7	Long: -46.55	Name: São Bernardo do Campo	Count:52262
1108	Lat: -23.7	Long: -46.6167	Name: Diadema	Count:28705
1109	Lat: -23.0848	Long: -47.7846	Name: Jumirim	Count:184
1110	Lat: -29.9426	Long: -50.9933	Name: Gravataí	Count:9065
1111	Lat: -10.5	Long: -37.0667	Name: Capela	Count:205
1112	Lat: -7.2	Long: -39.3333	Name: Juazeiro do Norte	Count:7107
1113	Lat: -12.1167	Long: -38.4333	Name: Alagoinhas	Count:2533
1114	Lat: -19.9833	Long: -43.85	Name: Nova Lima	Count:11168
1115	Lat: -19.9833	Long: -44.4167	Name: Mateus Leme	Count:1035
1116	Lat: -30.1667	Long: -53.5667	Name: Sao Sepe	Count:10
1117	Lat: -19.2167	Long: -45.9667	Name: Sao Gotardo	Count:215
1118	Lat: -12.9667	Long: -39.2667	Name: Santo Antonio de Jesus	Count:6440
1119	Lat: -22.2289	Long: -43.1069	Name: Areal	Count:215
1120	Lat: -8.9	Long: -36.4833	Name: Garanhuns	Count:4050
1121	Lat: -4.9539	Long: -37.1322	Name: Areia Branca	Count:512
1122	Lat: -1.15	Long: -47.5167	Name: Caripi	Count:2287
1123	Lat: -3.7	Long: -38.65	Name: Caucaia	Count:7722
1124	Lat: -3.7	Long: -40.35	Name: Sobral	Count:9527
1125	Lat: -3.7	Long: -49.7	Name: Tucurui	Count:1292
1126	Lat: -4.9333	Long: -37.9667	Name: Russas	Count:758
1127	Lat: -15.8167	Long: -48.1167	Name: Ceilandia	Count:13198
1128	Lat: -15.8167	Long: -42.2333	Name: Taiobeiras	Count:1528
1129	Lat: -29.5333	Long: -50.8	Name: Tres Coroas	Count:482
1130	Lat: -29.5333	Long: -51.0833	Name: Novo Hamburgo	Count:102
1131	Lat: -12.4167	Long: -41.7667	Name: Seabra	Count:215
1132	Lat: -12.4167	Long: -38.9667	Name: Sao Goncalo dos Campos	Count:820
1133	Lat: -27.2667	Long: -48.8333	Name: Sao Joao Batista	Count:584
1134	Lat: -18.75	Long: -44.4167	Name: Curvelo	Count:440
1135	Lat: -12.3	Long: -40.1167	Name: Morro	Count:71
1136	Lat: -20.8667	Long: -49.3	Name: Sao Jose do Rio Preto	Count:164
1137	Lat: -20.8667	Long: -40.9333	Name: Rio Novo do Sul	Count:225
1138	Lat: -26.4	Long: -52.35	Name: Clevelandia	Count:71
1139	Lat: -26.4	Long: -52.7667	Name: Sao Lourenco dOeste	Count:82
1140	Lat: -22.05	Long: -51.55	Name: Presidente Bernardes	Count:615
1141	Lat: -9.75	Long: -36.65	Name: Arapiraca	Count:12173
1142	Lat: -7.85	Long: -41.9	Name: Simplicio Mendes	Count:30
1143	Lat: -7.85	Long: -35.25	Name: Carpina	Count:2071
1144	Lat: -7.85	Long: -37.9833	Name: Flores	Count:379
1145	Lat: -24.35	Long: -50.6167	Name: Telemaco Borba	Count:164
1146	Lat: -27.1167	Long: -51.4667	Name: Joacaba	Count:61
1147	Lat: -27.1167	Long: -52.2833	Name: Concordia	Count:256
1148	Lat: -28.6667	Long: -52.15	Name: Alvorada	Count:1794
1149	Lat: -28.6667	Long: -49.2	Name: Morro da Fumaca	Count:112
1150	Lat: -28.6667	Long: -49.3833	Name: Criciúma	Count:14511
1151	Lat: -17.7167	Long: -48.15	Name: Ipameri	Count:1220
1152	Lat: -17.7167	Long: -49.4833	Name: Pontalina	Count:61
1153	Lat: -11.0833	Long: -43.1667	Name: Barra	Count:51
1154	Lat: -22.1575	Long: -43.2906	Name: Paraiba do Sul	Count:871
1155	Lat: -20.8333	Long: -43.8	Name: Conselheiro Lafaiete	Count:30
1156	Lat: -20.8333	Long: -42.65	Name: Ervalia	Count:51
1157	Lat: -20.8333	Long: -40.7167	Name: Piuma	Count:143
1158	Lat: -20.8333	Long: -49.2167	Name: Guapiacu	Count:184
1159	Lat: -6.8333	Long: -35.1167	Name: Mamanguape	Count:102
1160	Lat: -11.65	Long: -39	Name: Serrinha	Count:461
1161	Lat: -20.3167	Long: -48.3	Name: Guaira	Count:328
1162	Lat: -20.3167	Long: -42.6	Name: Santo Antonio do Grama	Count:51
1163	Lat: -20.3167	Long: -40.35	Name: Vitória	Count:82075
1164	Lat: -14.0667	Long: -39.6333	Name: Ibirataia	Count:20
1165	Lat: -14.0667	Long: -42.4833	Name: Caetite	Count:71
1166	Lat: -6.7833	Long: -43.0167	Name: Floriano	Count:1179
1167	Lat: -23.3619	Long: -46.7407	Name: Caieiras	Count:5281
1168	Lat: -24.7667	Long: -51.7333	Name: Pitanga	Count:20
1169	Lat: -22.2419	Long: -43.7014	Name: Valenca	Count:1722
1170	Lat: -22.1	Long: -43.4	Name: Serra	Count:82
1171	Lat: -22.1	Long: -56.5167	Name: Bela Vista	Count:153
1172	Lat: -22.1	Long: -41.4667	Name: Quissama	Count:235
1173	Lat: -21.3667	Long: -50.25	Name: Birigui	Count:358
1174	Lat: -21.3667	Long: -45.5167	Name: Tres Pontas	Count:2174
1175	Lat: -21.3667	Long: -47.2167	Name: Serra	Count:779
1176	Lat: -21.3667	Long: -46.9333	Name: Mococa	Count:646
1177	Lat: -21.3667	Long: -46.5333	Name: Muzambinho	Count:123
1178	Lat: -21.3667	Long: -48.0667	Name: Pradopolis	Count:594
1179	Lat: -14.9333	Long: -42.8333	Name: Espinosa	Count:20
1180	Lat: -22.1333	Long: -51.5	Name: Presidente Prudente	Count:184
1181	Lat: -22.1333	Long: -50.1667	Name: Pompeia	Count:235
1182	Lat: -27.1833	Long: -53.7333	Name: Porto	Count:266
1183	Lat: -27.1833	Long: -51.7333	Name: Jabora	Count:82
1184	Lat: -21.55	Long: -46.05	Name: Alfenas	Count:82
1185	Lat: -21.55	Long: -43.0167	Name: Sao Joao Nepomuceno	Count:143
1186	Lat: -21.55	Long: -45.7333	Name: Paraguacu	Count:225
1187	Lat: -21.55	Long: -47.7167	Name: Luis Antonio	Count:256
1188	Lat: -21.55	Long: -45.4333	Name: Varginha	Count:3333
1189	Lat: -9	Long: -36.0333	Name: Sao Jose da Laje	Count:1271
1190	Lat: -25.85	Long: -52.5	Name: Chopinzinho	Count:256
1191	Lat: -14.85	Long: -40.85	Name: Vitória da Conquista	Count:2810
1192	Lat: -14.85	Long: -39.6833	Name: Ibicarai	Count:184
1193	Lat: -23.8469	Long: -50.1886	Name: Ibaiti	Count:71
1194	Lat: -20.9833	Long: -47.6667	Name: Brodosqui	Count:410
1195	Lat: -3.5667	Long: -41.0833	Name: Vicosa do Ceara	Count:410
1196	Lat: -27.1667	Long: -51.5	Name: Joacaba	Count:358
1197	Lat: -27.1667	Long: -52.8667	Name: Caxambu	Count:123
1198	Lat: -22.2167	Long: -54.8	Name: Dourados	Count:5579
1199	Lat: -22.2167	Long: -45.9333	Name: Pouso Alegre	Count:2933
1200	Lat: -22.2167	Long: -49.9333	Name: Marília	Count:8491
1201	Lat: -24.5119	Long: -48.8447	Name: Apiai	Count:205
1202	Lat: -23.2156	Long: -52.2316	Name: Bela Vista	Count:287
1203	Lat: -3.5167	Long: -40.3167	Name: Sobral	Count:317
1204	Lat: -22.3333	Long: -45.1	Name: Passa Quatro	Count:112
1205	Lat: -22.3333	Long: -47.1667	Name: Conchal	Count:153
1206	Lat: -23.8167	Long: -46.8	Name: Embu Guacu	Count:2676
1207	Lat: -23.8167	Long: -47.7	Name: Pilar do Sul	Count:440
1208	Lat: -28.45	Long: -52.2	Name: Marau	Count:717
1209	Lat: -5.6833	Long: -44.0667	Name: Fortuna	Count:840
1210	Lat: -10.9167	Long: -37.0667	Name: Aracaju	Count:37915
1211	Lat: -22.2667	Long: -46.1667	Name: Borda da Mata	Count:10
1212	Lat: -22.2667	Long: -42.5333	Name: Nova Friburgo	Count:10265
1213	Lat: -23.5413	Long: -47.4447	Name: Votorantim	Count:2984
1214	Lat: -23.6	Long: -51.65	Name: Jandaia do Sul	Count:482
1215	Lat: -23.6	Long: -48.05	Name: Itapetininga	Count:4420
1216	Lat: -23.6	Long: -46.7667	Name: Taboao da Serra	Count:12275
1217	Lat: -23.6	Long: -46.5667	Name: Sao Caetano do Sul	Count:19208
1218	Lat: -23.8667	Long: -46.95	Name: Sao Lourenco da Serra	Count:820
1219	Lat: -23.8667	Long: -53.8167	Name: Sao Joao	Count:307
1220	Lat: -15.6833	Long: -48.2	Name: Brasilandia	Count:2892
1221	Lat: -15.6833	Long: -54.3667	Name: Primavera	Count:461
1222	Lat: -19.2	Long: -46.25	Name: Rio Paranaiba	Count:153
1223	Lat: -19.2	Long: -44.2333	Name: Sete Lagoas	Count:61
1224	Lat: -3.9333	Long: -39.4	Name: Umirim	Count:256
1225	Lat: -21.6333	Long: -41.05	Name: Sao Joao da Barra	Count:71
1226	Lat: -21.6333	Long: -49.7833	Name: Lins	Count:174
1227	Lat: -23.5444	Long: -47.1835	Name: Mairinque	Count:2461
1228	Lat: -23.1714	Long: -49.9915	Name: Jacarezinho	Count:235
1229	Lat: -24.5833	Long: -53.9667	Name: Marechal Candido Rondon	Count:71
1230	Lat: -15.1	Long: -56.7167	Name: Chapadao	Count:20
1231	Lat: -14.3667	Long: -51	Name: Cocalinho	Count:205
1232	Lat: -32.0333	Long: -52.0833	Name: Rio Grande	Count:8183
1233	Lat: -23.4833	Long: -46.35	Name: Itaquaquecetuba	Count:16152
1234	Lat: -23.4833	Long: -47.45	Name: Sorocaba	Count:45729
1235	Lat: -23.4833	Long: -48.4167	Name: Angatuba	Count:112
1236	Lat: -25.6667	Long: -53.8	Name: Capanema	Count:123
1237	Lat: -20.7167	Long: -46.75	Name: Itau de Minas	Count:61
1238	Lat: -20.7167	Long: -47.8833	Name: Orlandia	Count:943
1239	Lat: -20.7167	Long: -46.6167	Name: Passos	Count:2410
1240	Lat: -12.5833	Long: -39.55	Name: Recanto	Count:440
1241	Lat: -7.5833	Long: -37.55	Name: Tabira	Count:348
1242	Lat: -7.5833	Long: -35.1	Name: Condado	Count:235
1243	Lat: -25.6578	Long: -49.3078	Name: Fazenda Rio Grande	Count:2430
1244	Lat: -25.4261	Long: -50.0033	Name: Palmeira	Count:205
1245	Lat: -26.3833	Long: -53.05	Name: Sao Lourenco dOeste	Count:51
1246	Lat: -24.0333	Long: -53.2167	Name: Moreira Sales	Count:174
1247	Lat: -23.7667	Long: -51.25	Name: Eldorado	Count:553
1248	Lat: -23.7667	Long: -53.0667	Name: Cruzeiro do Oeste	Count:82
1249	Lat: -6.9667	Long: -41.2333	Name: Picos	Count:153
1250	Lat: -6.9667	Long: -34.8333	Name: Cabedelo	Count:1774
1251	Lat: -21.1	Long: -51.4833	Name: Nova Independencia	Count:123
1252	Lat: -21.1	Long: -56.2333	Name: Santa	Count:440
1253	Lat: -16.3667	Long: -49.5	Name: Inhumas	Count:225
1254	Lat: -2.25	Long: -49.5	Name: Cameta	Count:235
1255	Lat: -27.1511	Long: -48.5078	Name: Porto Belo	Count:215
1256	Lat: -23.4167	Long: -51.9167	Name: Maringá	Count:25075
1257	Lat: -26.4667	Long: -51.4167	Name: General Carneiro	Count:605
1258	Lat: -27.0546	Long: -49.516	Name: Ibirama	Count:687
1259	Lat: -26.0833	Long: -53.0667	Name: Francisco Beltrao	Count:1917
1260	Lat: -22.1833	Long: -51.2	Name: Martinopolis	Count:71
1261	Lat: -22.1833	Long: -41.6667	Name: Macaé	Count:440
1262	Lat: -22.7903	Long: -43.325	Name: Duque de Caxias	Count:32592
1263	Lat: -7.75	Long: -37.65	Name: Afogados da Ingazeira	Count:523
1264	Lat: -7.75	Long: -34.8333	Name: Itamaraca	Count:430
1265	Lat: -12.35	Long: -38.3833	Name: Catu	Count:1743
1266	Lat: -12.35	Long: -38.3333	Name: Catu	Count:492
1267	Lat: -15.1167	Long: -56.4	Name: Boa Vista	Count:553
1268	Lat: -25.9833	Long: -48.8784	Name: Sitio Ernesto Rooder	Count:625
1269	Lat: -24.1667	Long: -49.6667	Name: Arapoti	Count:30
1270	Lat: -21.2167	Long: -50.85	Name: Valparaiso	Count:10
1271	Lat: -21.2167	Long: -49.2833	Name: Urupes	Count:564
1272	Lat: -9.4167	Long: -36.6167	Name: Travessada	Count:61
1273	Lat: -9.4167	Long: -35.8333	Name: Messias	Count:2092
1274	Lat: -9.4167	Long: -38.0333	Name: Nossa Senhora	Count:143
1275	Lat: -9.4167	Long: -36.0667	Name: Capela	Count:492
1276	Lat: -21.2667	Long: -48.8	Name: Santa Adelia	Count:317
1277	Lat: -21.2667	Long: -48.3167	Name: Jaboticabal	Count:2225
1278	Lat: -22.9488	Long: -43.3649	Name: Cidade de Deus	Count:369
1279	Lat: -23.3158	Long: -46.2241	Name: Santa Isabel	Count:758
1280	Lat: -27.5833	Long: -50.4	Name: Correia Pinto	Count:153
1281	Lat: -27.5833	Long: -48.5667	Name: Florianópolis	Count:125898
1282	Lat: -20.6833	Long: -50.5667	Name: Auriflama	Count:174
1283	Lat: -20.6833	Long: -44.0667	Name: Conselheiro Lafaiete	Count:102
1284	Lat: -20.6833	Long: -44.8167	Name: Oliveira	Count:82
1285	Lat: -24.05	Long: -52.3667	Name: Campo Mourao	Count:1087
1286	Lat: -5.35	Long: -49.1167	Name: Marabá	Count:2030
1287	Lat: -12.6	Long: -38.9667	Name: Cachoeira	Count:3148
1288	Lat: -13.0333	Long: -40.05	Name: Lagoa das Cabras	Count:51
1289	Lat: -13.0333	Long: -39	Name: Nazare	Count:451
1290	Lat: -13.0333	Long: -42.7	Name: Macaubas	Count:328
1291	Lat: -14.0833	Long: -46.3667	Name: Posse	Count:235
1292	Lat: -21.7833	Long: -48.1667	Name: Araraquara	Count:13475
1293	Lat: -6.2667	Long: -35.2	Name: Goianinha	Count:297
1294	Lat: -26.5	Long: -53.5	Name: Sao Jose do Cedro	Count:51
1295	Lat: -26.5	Long: -52	Name: Palmas	Count:2615
1296	Lat: -12.65	Long: -38.6833	Name: Sao Francisco do Conde	Count:51
1297	Lat: -25.95	Long: -52.15	Name: Mangueirinha	Count:440
1298	Lat: -7.9833	Long: -38.3	Name: Serra Talhada	Count:1374
1299	Lat: -7.9833	Long: -37.9667	Name: Serafina	Count:717
1300	Lat: -8.6667	Long: -35.15	Name: Rio Formoso	Count:235
1301	Lat: -8.6667	Long: -35.7167	Name: Catende	Count:112
1302	Lat: -18.7667	Long: -42.3833	Name: Sardoa	Count:225
1303	Lat: -6.2167	Long: -36.0167	Name: Santa Cruz	Count:399
1304	Lat: -16.1	Long: -48.8	Name: Abadiania	Count:799
1305	Lat: -16.1	Long: -40.4	Name: Rubim	Count:851
1306	Lat: -19.3667	Long: -42.5333	Name: Santana do Paraiso	Count:369
1307	Lat: -1.5333	Long: -52.5667	Name: Almeirim	Count:564
1308	Lat: -12.0167	Long: -38.6167	Name: Ouricangas	Count:41
1309	Lat: -20.4167	Long: -50.0833	Name: Votuporanga	Count:502
1310	Lat: -20.4167	Long: -54.0667	Name: Campo Verde	Count:215
1311	Lat: -30.1111	Long: -51.3167	Name: Guaíba	Count:1938
1312	Lat: -29.0833	Long: -53.85	Name: Tupancireta	Count:82
1313	Lat: -21.1833	Long: -48.6167	Name: Taquaritinga	Count:92
1314	Lat: -13.85	Long: -40.0833	Name: Jequié	Count:656
1315	Lat: -26.9833	Long: -48.6333	Name: Balneário Camboriú	Count:22562
1316	Lat: 2.8167	Long: -60.6667	Name: Boa Vista	Count:3763
1317	Lat: -29.1544	Long: -51.0949	Name: Nossa Senhora Das Gracas	Count:246
1318	Lat: -23.2833	Long: -51.05	Name: Ibipora	Count:1158
1319	Lat: -23.2833	Long: -47.6833	Name: Boituva	Count:1969
1320	Lat: -5.2633	Long: -36.7231	Name: Pendencias	Count:328
1321	Lat: -22.8708	Long: -43.7738	Name: Itaguai	Count:4563
1322	Lat: -12.4	Long: -38.5	Name: Fragoso	Count:461
1323	Lat: -29.8167	Long: -53.3833	Name: Restinga Seca	Count:61
1324	Lat: -3.8667	Long: -38.6333	Name: Maracanau	Count:5855
1325	Lat: -26.45	Long: -49	Name: Jaraguá do Sul	Count:1056
1326	Lat: -26.3692	Long: -48.7221	Name: Araquari	Count:1507
1327	Lat: -23.9275	Long: -47.0695	Name: Juquitiba	Count:348
1328	Lat: -30.8833	Long: -55.5167	Name: Santana do Livramento	Count:82
1329	Lat: -16.2667	Long: -40.5667	Name: Salvador	Count:276
1330	Lat: -21.4	Long: -48.5	Name: Taquaritinga	Count:482
1331	Lat: -21.4	Long: -42.6833	Name: Cataguases	Count:840
1332	Lat: -21.4	Long: -50.0667	Name: Penapolis	Count:307
1333	Lat: -21.4	Long: -51.5667	Name: Tupi Paulista	Count:430
1334	Lat: -10.6833	Long: -39.5167	Name: Cansancao	Count:738
1335	Lat: -10.6833	Long: -37.4333	Name: Itabaiana	Count:779
1336	Lat: -10.6833	Long: -38.2833	Name: Heliopolis	Count:51
1337	Lat: -12.7667	Long: -38.9167	Name: Maragogipe	Count:348
1338	Lat: -18.9167	Long: -40.5	Name: Sao Roque	Count:994
1339	Lat: -18.9167	Long: -48.3	Name: Uberlandia	Count:43606
1340	Lat: -5.6	Long: -46.75	Name: Amarante do Maranhao	Count:687
1341	Lat: -5.6	Long: -35.8333	Name: Riacho Fundo	Count:143
1342	Lat: -22.5108	Long: -43.1844	Name: Petrópolis	Count:17167
1343	Lat: -12.5333	Long: -40.3	Name: Itaberaba	Count:512
1344	Lat: -12.5333	Long: -38.7167	Name: Santo Amaro	Count:451
1345	Lat: -9.3667	Long: -36.3667	Name: Paulo Jacinto	Count:594
1346	Lat: -9.3667	Long: -37.2333	Name: Barroso	Count:10
1347	Lat: -15.5833	Long: -49.9833	Name: Itapuranga	Count:440
1348	Lat: -15.5833	Long: -56.0833	Name: Cuiabá	Count:38232
1349	Lat: -22.7833	Long: -47.3	Name: Nova Odessa	Count:2943
1350	Lat: -22.7833	Long: -50.2	Name: Palmital	Count:30
1351	Lat: -22.7833	Long: -51.1833	Name: Porecatu	Count:41
1352	Lat: -7.6333	Long: -72.6	Name: Cruzeiro do Sul	Count:10
1353	Lat: -7.6333	Long: -47.2	Name: Santa Luzia	Count:717
1354	Lat: -7.0167	Long: -35.85	Name: Esperanca	Count:266
1355	Lat: -7.0167	Long: -42.1333	Name: Oeiras	Count:1507
1356	Lat: -7.0167	Long: -37.2667	Name: Patos	Count:3384
1357	Lat: -7.0167	Long: -37.9667	Name: Coremas	Count:1374
1358	Lat: -1.1667	Long: -46.3333	Name: Itapixuna	Count:523
1359	Lat: -23.5	Long: -46.85	Name: Aldeia	Count:184
1360	Lat: -23.5	Long: -52.1667	Name: Agua Boa	Count:410
1361	Lat: -2.9	Long: -40.5333	Name: Forquilha	Count:153
1362	Lat: -20.95	Long: -41.3	Name: Cachoeiro de Itapemirim	Count:123
1363	Lat: -20.95	Long: -45.3833	Name: Jose Alves	Count:225
1364	Lat: -20.95	Long: -44.9167	Name: Santo Antonio do Amparo	Count:61
1365	Lat: -7.2333	Long: -39.3833	Name: Crato	Count:1999
1366	Lat: -28.3833	Long: -53.9167	Name: Ijui	Count:1087
1367	Lat: -7.4667	Long: -38.1	Name: Gomes	Count:92
1368	Lat: -7.4667	Long: -37.2667	Name: Sao Jose do Egito	Count:1158
1369	Lat: -19.3	Long: -44.4167	Name: Caetanopolis	Count:256
1370	Lat: -19.3	Long: -48.9167	Name: Prata	Count:482
1371	Lat: -31.1	Long: -50.95	Name: Mostardas	Count:41
1372	Lat: -1.75	Long: -47.0833	Name: Capitao Poco	Count:41
1373	Lat: -23.9	Long: -52.5	Name: Campo Mourao	Count:112
1374	Lat: -23.9	Long: -51.95	Name: Fenix	Count:51
1375	Lat: -23.9	Long: -52.3333	Name: Peabiru	Count:133
1376	Lat: -10.4333	Long: -62.45	Name: Jaru	Count:82
1377	Lat: -10.4333	Long: -39.3333	Name: Monte Santo	Count:133
1378	Lat: -22.4099	Long: -44.2594	Name: Quatis	Count:523
1379	Lat: -28.4667	Long: -52.8167	Name: Nao Me Toque	Count:82
1380	Lat: -16.1833	Long: -40.45	Name: Conceicao	Count:215
1381	Lat: -16.1833	Long: -54.9667	Name: Fatima	Count:810
1382	Lat: -11.3833	Long: -37.85	Name: Tomar do Geru	Count:1015
1383	Lat: -22.7264	Long: -45.5792	Name: Campos do Jordao	Count:1097
1384	Lat: -6.25	Long: -36.5167	Name: Currais Novos	Count:1825
1385	Lat: -1.45	Long: -48.4833	Name: Belém	Count:52078
1386	Lat: -3.1	Long: -40.8333	Name: Granja	Count:461
1387	Lat: -15.2833	Long: -49.5833	Name: Rialma	Count:143
1388	Lat: -10.1167	Long: -36.65	Name: Igreja Nova	Count:1005
1389	Lat: -16.2833	Long: -39.0333	Name: Santa Cruz Cabralia	Count:440
1390	Lat: -22	Long: -45.3	Name: Lambari	Count:307
1391	Lat: -22	Long: -42.9	Name: Sapucaia	Count:133
1392	Lat: -14.9	Long: -39.4333	Name: Itabuna	Count:102
1393	Lat: -30.8167	Long: -53.9167	Name: Lavras do Sul	Count:71
1394	Lat: -19.8833	Long: -47.45	Name: Sacramento	Count:533
1395	Lat: -19.8833	Long: -54.8667	Name: Rochedo	Count:10
1396	Lat: -25.1502	Long: -53.847	Name: Ceu Azul	Count:143
1397	Lat: -24.9408	Long: -48.0878	Name: Batista	Count:194
1398	Lat: -28.6	Long: -51.7833	Name: Parai	Count:225
1399	Lat: -28.6	Long: -49.0333	Name: Jaguaruna	Count:748
1400	Lat: -22.4	Long: -47.55	Name: Rio Claro	Count:12973
1401	Lat: -22.4	Long: -51.5167	Name: Narandiba	Count:71
1402	Lat: -22.4	Long: -49.4167	Name: Duartina	Count:164
1403	Lat: -22.4	Long: -48.4333	Name: Dois Corregos	Count:153
1404	Lat: -11.1833	Long: -40.5167	Name: Jacobina	Count:543
1405	Lat: -11.1833	Long: -38.0167	Name: Tobias Barreto	Count:799
1406	Lat: -17.7333	Long: -49.1167	Name: Morrinhos	Count:328
1407	Lat: -18.9667	Long: -41.6333	Name: Tumiritinga	Count:41
1408	Lat: -18.9667	Long: -49.4667	Name: Ituiutaba	Count:1097
1409	Lat: -18.9667	Long: -46.6667	Name: Cruzeiro da Fortaleza	Count:184
1410	Lat: -11.6333	Long: -42.0333	Name: Ibipeba	Count:30
1411	Lat: -23.4733	Long: -46.6658	Name: São Paulo	Count:2158706
1412	Lat: -16.5667	Long: -42.9	Name: Grao Mogol	Count:51
1413	Lat: -11.6	Long: -38.8	Name: Biritinga	Count:287
1414	Lat: -19.7833	Long: -51.8	Name: Estiva	Count:133
1415	Lat: -19.7833	Long: -44.1	Name: Ribeirão das Neves	Count:3466
1416	Lat: -19.7833	Long: -42.1333	Name: Caratinga	Count:543
1417	Lat: -19.7833	Long: -43.8667	Name: Santa Luzia	Count:4615
1418	Lat: -22.7592	Long: -43.4319	Name: Nova Iguaçu	Count:20039
1419	Lat: -6.8833	Long: -36.9333	Name: Santa Luzia	Count:51
1420	Lat: -23.1825	Long: -52.203	Name: Nova Esperanca	Count:133
1421	Lat: -7.7667	Long: -34.9	Name: Itapissuma	Count:307
1422	Lat: -20.5	Long: -43.8667	Name: Congonhas	Count:625
1423	Lat: -27.65	Long: -54.45	Name: Horizontina	Count:102
1424	Lat: -23.95	Long: -47.4833	Name: Tapirai	Count:297
1425	Lat: -23.95	Long: -46.3333	Name: Santos	Count:58518
1426	Lat: -9.4833	Long: -35.85	Name: Rio Largo	Count:615
1427	Lat: -6.4833	Long: -36.15	Name: Cuite	Count:851
1428	Lat: -28.9333	Long: -49.4833	Name: Ararangua	Count:3138
1429	Lat: -28.9333	Long: -49.6833	Name: Ararangua	Count:174
1430	Lat: -23.3955	Long: -52.6444	Name: Sao Manoel	Count:153
1431	Lat: -26.1	Long: -50.3167	Name: Tres Barras	Count:235
1432	Lat: -25.3667	Long: -49.0833	Name: Quatro Barras	Count:1579
1433	Lat: -26.0998	Long: -49.4275	Name: Pien	Count:20
1434	Lat: -11.0167	Long: -37.2	Name: Sao Cristovao	Count:2081
1435	Lat: -22.9021	Long: -43.1303	Name: Rio de Janeiro	Count:80198
1436	Lat: -29.2833	Long: -51.8667	Name: Roca Sales	Count:10
1437	Lat: -20.6167	Long: -49.6167	Name: Tanabi	Count:225
1438	Lat: -7.15	Long: -40.9	Name: Brasa	Count:666
1439	Lat: -7.15	Long: -35.85	Name: Lagoa Seca	Count:492
1440	Lat: -7.15	Long: -35.9667	Name: Campina Grande	Count:164
1441	Lat: -23.0007	Long: -47.502	Name: Capivari	Count:1866
1442	Lat: -23.8557	Long: -50.0314	Name: Terra Roxa	Count:92
1443	Lat: -26.1928	Long: -49.2532	Name: São Bento do Sul	Count:10
1444	Lat: -29.4333	Long: -51.8	Name: Teutonia	Count:881
1445	Lat: -23.8	Long: -46.3333	Name: Rio Grande da Serra	Count:2604
1446	Lat: -23.8	Long: -45.4167	Name: Sao Sebastiao	Count:5066
1447	Lat: -27.8667	Long: -51.15	Name: Pinhal da Serra	Count:205
1448	Lat: -27.8667	Long: -54.4833	Name: Santa Rosa	Count:1128
1449	Lat: -18.7333	Long: -39.85	Name: São Mateus	Count:2604
1450	Lat: -22.9656	Long: -43.0478	Name: Itaipu	Count:112
1451	Lat: -20.5833	Long: -47.8833	Name: Sao Joaquim da Barra	Count:1466
1452	Lat: -20.5833	Long: -47.2333	Name: Alambari	Count:30
1453	Lat: -11.3	Long: -41.8667	Name: Irece	Count:656
1454	Lat: -3.55	Long: -40.65	Name: Coreau	Count:379
1455	Lat: -3.55	Long: -44.5167	Name: Miranda	Count:605
1456	Lat: -21.5667	Long: -51.2833	Name: Pacaembu	Count:502
1457	Lat: -23.2545	Long: -50.0741	Name: Palmital	Count:71
1458	Lat: -28.7833	Long: -51.6	Name: Nova Prata	Count:184
1459	Lat: -5.2894	Long: -36.7611	Name: Alto do Rodrigues	Count:10
1460	Lat: -5.1333	Long: -38.0833	Name: Limoeiro do Norte	Count:1025
1461	Lat: -21.1167	Long: -41.7333	Name: Barra	Count:225
1462	Lat: -21.1167	Long: -42.9333	Name: Uba	Count:2184
1463	Lat: -21.1167	Long: -44.1833	Name: Tiradentes	Count:584
1464	Lat: -28.65	Long: -56	Name: São Borja	Count:82
1465	Lat: -28.65	Long: -53.6	Name: Cruz Alta	Count:810
1466	Lat: -7.3	Long: -35.4667	Name: Mogeiro	Count:564
1467	Lat: -7.3	Long: -38.1667	Name: Itaporanga	Count:71
1468	Lat: -18.95	Long: -46.9833	Name: Patrocinio	Count:964
1469	Lat: -22.9013	Long: -43.2815	Name: Meier	Count:205
1470	Lat: -22.3833	Long: -49.15	Name: Bauru	Count:256
1471	Lat: -22.3833	Long: -42.1	Name: Cachoeiras	Count:10
1472	Lat: -22.3833	Long: -48.7667	Name: Pederneiras	Count:646
1473	Lat: -22.3833	Long: -41.7833	Name: Macaé	Count:13742
1474	Lat: -27.9333	Long: -50.5	Name: Lages	Count:20
1475	Lat: -27.9333	Long: -52.9167	Name: Sarandi	Count:358
1476	Lat: -5.9667	Long: -40.3	Name: Taua	Count:625
1477	Lat: -21.3	Long: -46.7	Name: Guaxupe	Count:317
1478	Lat: -21.3	Long: -49.95	Name: Penapolis	Count:82
1479	Lat: -21.3	Long: -40.9667	Name: Itabapoana	Count:30
1480	Lat: -21.3	Long: -41.5667	Name: Lauro	Count:92
1481	Lat: -21.3	Long: -50.3167	Name: Birigui	Count:3558
1482	Lat: -14.95	Long: -49.5667	Name: Itapaci	Count:246
1483	Lat: -21.2333	Long: -45	Name: Lavras	Count:1907
1484	Lat: -21.2333	Long: -47.6	Name: Serrana	Count:871
1485	Lat: -21.2333	Long: -45.7667	Name: Campos Gerais	Count:492
1486	Lat: -21.2333	Long: -43.7667	Name: Barbacena	Count:4163
1487	Lat: -21.2333	Long: -41.6667	Name: Sao Sebastiao	Count:512
1488	Lat: -21.2333	Long: -47.0667	Name: Imperatriz	Count:184
1489	Lat: -8.5167	Long: -35.3833	Name: Ribeirao	Count:512
1490	Lat: -8.5167	Long: -39.3167	Name: Cabrobo	Count:153
1491	Lat: -5.2833	Long: -38.8667	Name: Laranjeira	Count:51
1492	Lat: -27.4167	Long: -49.6	Name: Ituporanga	Count:471
1493	Lat: -22.4667	Long: -49	Name: Agudos	Count:1128
1494	Lat: -22.4667	Long: -42.65	Name: Cachoeiras de Macacu	Count:1958
1495	Lat: -22.4667	Long: -42.3	Name: Aldeia Velha	Count:2656
1496	Lat: -22.4667	Long: -45.6167	Name: Itajuba	Count:51
1497	Lat: -22.4667	Long: -47.5167	Name: Santa Gertrudes	Count:1066
1498	Lat: -22.4667	Long: -49.3333	Name: Cabralia Paulista	Count:123
1499	Lat: -22.4667	Long: -45.5667	Name: Itajuba	Count:1661
1500	Lat: -4.75	Long: -42.5833	Name: Jose de Freitas	Count:143
1501	Lat: -23.0667	Long: -52.4667	Name: Paranavai	Count:3568
1502	Lat: -23.0667	Long: -46.9667	Name: Louveira	Count:3640
1503	Lat: -23.0667	Long: -51.0333	Name: Sertanopolis	Count:1128
1504	Lat: -28.7	Long: -50.4	Name: Bom Jesus	Count:10
1505	Lat: -28.7	Long: -49.3	Name: Icara	Count:2451
1506	Lat: -8.2833	Long: -35.9667	Name: Caruaru	Count:8142
1507	Lat: -22.0167	Long: -49.8	Name: Julio Mesquita	Count:174
1508	Lat: -22.0167	Long: -47.9	Name: São Carlos	Count:13086
1509	Lat: -22.0167	Long: -44.3167	Name: Liberdade	Count:51
1510	Lat: -5.95	Long: -40.1	Name: Alegres	Count:61
1511	Lat: -23.85	Long: -49.8	Name: Wenceslau Braz	Count:194
1512	Lat: -23.85	Long: -46.15	Name: Bertioga	Count:1630
1513	Lat: -23.85	Long: -51.85	Name: Sao Pedro do Ivai	Count:164
1514	Lat: -23.6167	Long: -52.6167	Name: Cianorte	Count:881
1515	Lat: -23.6167	Long: -45.4167	Name: Caraguatatuba	Count:3907
1516	Lat: -23.6167	Long: -46.9333	Name: Cotia	Count:23639
1517	Lat: -6.9	Long: -34.8667	Name: João Pessoa	Count:266
1518	Lat: -6.9	Long: -38.5667	Name: Cajazeiras	Count:2553
1519	Lat: -19.45	Long: -45.6	Name: Dores do Indaia	Count:133
1520	Lat: -19.45	Long: -43.1333	Name: Itabira	Count:235
1521	Lat: -19.45	Long: -44.2333	Name: Sete Lagoas	Count:7158
1522	Lat: -19.45	Long: -40.1667	Name: Tres Marias	Count:92
1523	Lat: -21.8833	Long: -51.9667	Name: Presidente Venceslau	Count:266
1524	Lat: -21.8833	Long: -49.5667	Name: Lins	Count:102
1525	Lat: -10.4667	Long: -50.5167	Name: Santa Terezinha	Count:61
1526	Lat: -20.8	Long: -40.65	Name: Anchieta	Count:297
1527	Lat: -20.8	Long: -49.3833	Name: Sao Jose do Rio Preto	Count:21988
1528	Lat: -20.8	Long: -51.7167	Name: Três Lagoas	Count:1517
1529	Lat: -14.2	Long: -39.5167	Name: Ubata	Count:51
1530	Lat: -9.2667	Long: -35.7167	Name: Sao Luis do Quitunde	Count:30
1531	Lat: -20.9667	Long: -46.1167	Name: Carmo do Rio Claro	Count:235
1532	Lat: -20.9667	Long: -41.9833	Name: Norte	Count:184
1533	Lat: -23.5833	Long: -46.0333	Name: Biritiba Mirim	Count:399
1534	Lat: -29.75	Long: -57.0833	Name: Uruguaiana	Count:912
1535	Lat: -10.8	Long: -44.1	Name: Tanque Novo	Count:502
1536	Lat: -10.8	Long: -37.1667	Name: Laranjeiras	Count:502
1537	Lat: -22.5667	Long: -44.9667	Name: Cruzeiro	Count:2635
1538	Lat: -7.6667	Long: -35.3333	Name: Vicencia	Count:625
1539	Lat: -7.6667	Long: -66.9667	Name: Pauini	Count:164
1540	Lat: -29.2	Long: -52.0333	Name: Nova Brescia	Count:51
1541	Lat: -11.0333	Long: -37.4667	Name: Salgado	Count:594
1542	Lat: -3.1333	Long: -40.15	Name: Marco	Count:20
1543	Lat: -27.6333	Long: -48.65	Name: Sao Jose	Count:23095
1544	Lat: -27.6333	Long: -53.9667	Name: Sede Nova	Count:420
1545	Lat: -27.6333	Long: -54.1667	Name: Boa Vista do Burica	Count:266
1546	Lat: -27.6333	Long: -48.6667	Name: Palhoca	Count:15516
1547	Lat: -27.6333	Long: -52.2833	Name: Erechim	Count:1599
1548	Lat: -25.7833	Long: -53.5167	Name: Realeza	Count:194
1549	Lat: -25.7833	Long: -53.0833	Name: Dois Vizinhos	Count:184
1550	Lat: -23.5167	Long: -46.9	Name: Barueri	Count:7701
1551	Lat: -23.5167	Long: -46.8833	Name: Barueri	Count:31218
1552	Lat: -23.5167	Long: -46.8333	Name: Carapicuiba	Count:22511
1553	Lat: -23.5167	Long: -46.1833	Name: Mogi das Cruzes	Count:32182
1554	Lat: -5.1914	Long: -37.3447	Name: Mossoro	Count:5948
1555	Lat: -15.25	Long: -40.25	Name: Itapetinga	Count:205
1556	Lat: -15.25	Long: -56.7333	Name: Mato Grosso	Count:174
1557	Lat: -21.35	Long: -46.15	Name: Areado	Count:184
1558	Lat: -21.35	Long: -51.85	Name: Panorama	Count:902
1559	Lat: -21.35	Long: -48.7	Name: Taquaritinga	Count:1005
1560	Lat: -21.35	Long: -48.2333	Name: Guariba	Count:923
1561	Lat: -6.05	Long: -38.4667	Name: Pereiro	Count:215
1562	Lat: -6.05	Long: -35.4333	Name: Parnamirim	Count:30
1563	Lat: -23.6667	Long: -46.45	Name: Maua	Count:23085
1564	Lat: -23.6667	Long: -51.6333	Name: Jandaia do Sul	Count:61
1565	Lat: -23.6667	Long: -46.5167	Name: Santo André	Count:52170
1566	Lat: -11.7167	Long: -40.1333	Name: Mairi	Count:194
1567	Lat: -22.6147	Long: -43.1686	Name: Piabeta	Count:533
1568	Lat: -27.1575	Long: -48.5397	Name: Porto Belo	Count:820
1569	Lat: -0.7667	Long: -47.45	Name: Maracana	Count:215
1570	Lat: -0.7667	Long: -47.1667	Name: Sao Joao de Pirabas	Count:92
1571	Lat: -22.9333	Long: -42.5	Name: Saquarema	Count:2892
1572	Lat: -22.9333	Long: -50.7167	Name: Taruma	Count:10
1573	Lat: -22.9333	Long: -46.2833	Name: Joanopolis	Count:461
1574	Lat: -26.3	Long: -48.8333	Name: Joinville	Count:78711
1575	Lat: -22.8003	Long: -43.0256	Name: Rio de Janeiro	Count:36940
1576	Lat: -15.45	Long: -39.65	Name: Pau Brasil	Count:71
1577	Lat: -22.2333	Long: -49.6167	Name: Garca	Count:646
1578	Lat: -22.2333	Long: -49.8333	Name: Marília	Count:328
1579	Lat: -3.6667	Long: -61.0833	Name: Vila Rica	Count:20
1580	Lat: -4.0333	Long: -38.4	Name: Itapo	Count:297
1581	Lat: -4.0333	Long: -38.3	Name: Eusebio	Count:112
1582	Lat: -24.4167	Long: -51.5	Name: Rio Bonito	Count:82
1583	Lat: -21.4667	Long: -44.2	Name: Piedade do Rio Grande	Count:184
1584	Lat: -21.4667	Long: -49.95	Name: Penapolis	Count:123
1585	Lat: -21.4667	Long: -47.0167	Name: Mococa	Count:2153
1586	Lat: -21.4667	Long: -49.2167	Name: Novo Horizonte	Count:892
1587	Lat: -21.4667	Long: -43.5667	Name: Santos Dumont	Count:164
1588	Lat: -23.3134	Long: -50.0088	Name: Platina	Count:102
1589	Lat: -15.8833	Long: -52.25	Name: Barra do Garças	Count:256
1590	Lat: -15.8833	Long: -50.85	Name: Itapirapua	Count:184
1591	Lat: -27.2833	Long: -48.9167	Name: Sao Joao Batista	Count:410
1592	Lat: -27.2833	Long: -51.4333	Name: Joacaba	Count:123
1593	Lat: -27.2833	Long: -48.7833	Name: Sao Joao Batista	Count:102
1594	Lat: -21.0167	Long: -42.8333	Name: Visconde do Rio Branco	Count:738
1595	Lat: -5.2	Long: -35.4667	Name: Touros	Count:184
1596	Lat: -5.2	Long: -39.2833	Name: Quixeramobim	Count:2758
1597	Lat: -18.85	Long: -41.9333	Name: Governador Valadares	Count:4009
1598	Lat: -18.6167	Long: -43.3833	Name: Serro	Count:358
1599	Lat: -13.7333	Long: -39.15	Name: Itubera	Count:389
1600	Lat: -0.9833	Long: -49.95	Name: Anajas	Count:656
1601	Lat: -27.2167	Long: -49.0833	Name: Sao Joao Batista	Count:328
1602	Lat: -27.2167	Long: -51.5667	Name: Erval d'Oeste	Count:184
1603	Lat: -23.4333	Long: -51.8667	Name: Sarandi	Count:605
1604	Lat: -23.4333	Long: -47.0667	Name: Santana de Parnaiba	Count:205
1605	Lat: -23.4333	Long: -45.0667	Name: Ubatuba	Count:2922
1606	Lat: -2.7	Long: -44.8333	Name: Sao Bento	Count:246
1607	Lat: -8.7	Long: -36.3333	Name: Sao Sebastiao	Count:697
1608	Lat: -8.7	Long: -37.6667	Name: Carnaiba	Count:143
1609	Lat: -6.9333	Long: -36.4	Name: Sao Vicente	Count:164
1610	Lat: -6.9333	Long: -36.6167	Name: Tenorio	Count:297
1611	Lat: -6.9333	Long: -35.7833	Name: Remigio	Count:123
1612	Lat: -24.7333	Long: -53.75	Name: Toledo	Count:4727
1613	Lat: -11.8167	Long: -37.6167	Name: Conde	Count:307
1614	Lat: -11.8167	Long: -39.1167	Name: Riachao do Jacuipe	Count:379
1615	Lat: -21.5333	Long: -50.45	Name: Birigui	Count:112
1616	Lat: -21.5333	Long: -42.6333	Name: Leopoldina	Count:348
1617	Lat: -21.5333	Long: -49.8667	Name: Promissao	Count:502
1618	Lat: -21.5333	Long: -51.4833	Name: Dracena	Count:389
1619	Lat: -21.5333	Long: -51.4333	Name: Junqueiropolis	Count:51
1620	Lat: -21.5333	Long: -42.1833	Name: Santo Antonio de Padua	Count:215
1621	Lat: -14.1333	Long: -39.7333	Name: Ipiau	Count:533
1622	Lat: -26.75	Long: -49.1833	Name: Pomerode	Count:1558
1623	Lat: -26.75	Long: -53.5667	Name: Sao Miguel d'Oeste	Count:697
1624	Lat: -27.5667	Long: -50.1167	Name: Otacilio Costa	Count:287
1625	Lat: -27.5667	Long: -51.6667	Name: Machadinho	Count:112
1626	Lat: -26.7833	Long: -53.15	Name: Maravilha	Count:338
1627	Lat: -26.7833	Long: -52.75	Name: Carlos Dahne	Count:102
1628	Lat: -26.7833	Long: -51	Name: Caçador	Count:1005
1629	Lat: -22.7858	Long: -43.4326	Name: Nova Iguaçu	Count:8296
1630	Lat: -13.75	Long: -39.5	Name: Cachoeira	Count:574
1631	Lat: -6.8	Long: -35.0833	Name: Rio Tinto	Count:410
1632	Lat: -12.9833	Long: -38.5167	Name: Salvador	Count:160900
1633	Lat: -12.9833	Long: -40.9667	Name: Itaete	Count:143
1634	Lat: -20.6667	Long: -41	Name: Vargem Alta	Count:82
1635	Lat: -20.6667	Long: -43.8	Name: Conselheiro Lafaiete	Count:2769
1636	Lat: -20.6667	Long: -40.5	Name: Guarapari	Count:7568
1637	Lat: -20.6667	Long: -48.4167	Name: Barretos	Count:133
1638	Lat: -25.7167	Long: -52.1833	Name: Candoi	Count:51
1639	Lat: -25.7167	Long: -50.7833	Name: Rio Azul	Count:287
1640	Lat: -28.8333	Long: -52.5	Name: Soledade	Count:410
1641	Lat: -21.9333	Long: -50.5	Name: Tupa	Count:1199
1642	Lat: -21.9333	Long: -46.3833	Name: Caldas	Count:974
1643	Lat: -21.9333	Long: -46.7167	Name: Poços de Caldas	Count:123
1644	Lat: -4.8333	Long: -43.35	Name: Caxias	Count:3497
1645	Lat: -4.8333	Long: -40.3333	Name: Tamboril	Count:635
1646	Lat: -4.8333	Long: -37.7833	Name: Jaguaruana	Count:379
1647	Lat: -26.9219	Long: -49.1033	Name: Velha	Count:297
1648	Lat: -27.2333	Long: -52.0167	Name: Concordia	Count:974
1649	Lat: -23.0333	Long: -45.55	Name: Taubate	Count:30582
1650	Lat: -23.0333	Long: -47.3833	Name: Elias Fausto	Count:379
1651	Lat: -23.0333	Long: -49.7167	Name: Chavantes	Count:1753
1652	Lat: -3.9833	Long: -40.0833	Name: Iracema	Count:205
1653	Lat: -29.8183	Long: -51.1553	Name: Sapucaia	Count:379
1654	Lat: -4.7125	Long: -37.3533	Name: Icapui	Count:358
1655	Lat: -30.1333	Long: -54.5167	Name: Estancia Nova	Count:30
1656	Lat: -13	Long: -39.1167	Name: Nazare	Count:61
1657	Lat: -6.45	Long: -37.1	Name: Caico	Count:3794
1658	Lat: -6.45	Long: -38.1667	Name: Alexandria	Count:1076
1659	Lat: -6.45	Long: -41.9333	Name: Novo Oriente	Count:71
1660	Lat: -17.85	Long: -41.5	Name: Teófilo Otoni	Count:615
1661	Lat: -29.6167	Long: -54.1667	Name: Sao Pedro do Sul	Count:82
1662	Lat: -29.6167	Long: -51.9333	Name: Lajeado	Count:307
1663	Lat: -29.6167	Long: -53.4333	Name: Sao Joao do Polesine	Count:61
1664	Lat: -21.15	Long: -51.1	Name: Mirandopolis	Count:461
1665	Lat: -21.15	Long: -44.2667	Name: São João del Rei	Count:2871
1666	Lat: -21.15	Long: -47.9667	Name: Ribeirão Preto	Count:184
1667	Lat: -21.15	Long: -48.5333	Name: Jaboticabal	Count:133
1668	Lat: -23.1242	Long: -46.5622	Name: Atibaia	Count:10378
1669	Lat: -19.1667	Long: -40.8833	Name: Parana	Count:676
1670	Lat: -19.1667	Long: -41.8667	Name: Itanhomi	Count:92
1671	Lat: -2.5167	Long: -44.2667	Name: São Luís	Count:109745
1672	Lat: -30.3333	Long: -54.3167	Name: Sao Gabriel	Count:256
1673	Lat: -23.8214	Long: -46.5454	Name: Rio Grande da Serra	Count:307
1674	Lat: -7.6833	Long: -35.6667	Name: Umbuzeiro	Count:82
1675	Lat: -23.0613	Long: -47.9133	Name: Rodrigues	Count:92
1676	Lat: -13.3167	Long: -50.2167	Name: Sao Miguel do Araguaia	Count:92
1677	Lat: -22.5333	Long: -41.95	Name: Rio das Ostras	Count:5712
1678	Lat: -22.5333	Long: -44.1167	Name: Volta Redonda	Count:11496
1679	Lat: -22.5333	Long: -42.9833	Name: Guapimirim	Count:1692
1680	Lat: -22.5333	Long: -55.7167	Name: Ponta Pora	Count:348
1681	Lat: -22.5333	Long: -44.1833	Name: Barra Mansa	Count:5650
1682	Lat: -30.2667	Long: -50.5167	Name: Palmares do Sul	Count:205
1683	Lat: -30.2667	Long: -51.0167	Name: Itapua	Count:2830
1684	Lat: -4.5667	Long: -37.7667	Name: Aracati	Count:4184
1685	Lat: -23.504	Long: -49.9239	Name: Joaquim Tavora	Count:41
1686	Lat: -23.75	Long: -52.45	Name: Terra Boa	Count:369
1687	Lat: -23.75	Long: -53.3333	Name: Umuarama	Count:1692
1688	Lat: -15.8	Long: -54.8833	Name: Mutum	Count:471
1689	Lat: -28.5667	Long: -51.9833	Name: Casca	Count:420
1690	Lat: -27.2	Long: -50.0833	Name: Mirim Doce	Count:358
1691	Lat: -29.6333	Long: -53.25	Name: Agudo	Count:92
1692	Lat: -29.6333	Long: -51	Name: Sapiranga	Count:5015
